uuid,upstream,source,name,version,date_modifi,completenes,source_url,raw-source,type,services,physical_ad,phone,mobile,email,url,activities,beds,ancillary_s,tags,scope_of_se,nature_of_f,ownership,staff,defining_ho,notes,inpatient_s,raw_source,what3words,source2,note,family_prac,emergency_p,heliport,contact,servicios_d,fracturas_a,traslados_d,service,lon,lat
"ddeb09c649234c00b485b7ea00319429","The Standby Task Force¶HF1686","MOHS DHIS","(Under Five) Chp","5","2016-06-22 13:37:17.667661+00:00","47.06%","null","https://data.humdata.org/dataset/sierra-leone-healthsites","null","null","null","null","null","null","null","Community Health Post","null","null","null","null","null","null","null","null","null","null","null","engages.throats.supreme","MOHS DHIS","null","null","null","null","null","null","null","null","null",-10.57345759,8.276540728
"325a4921301245ccb6fdeb7f39b37a73","The Standby Task Force¶HF1221","SL-MOH","34 Military Hosp (EPI)","5","2016-06-22 13:37:17.667661+00:00","41.18%","http://health.gov.sl/","https://data.humdata.org/dataset/sierra-leone-healthsites","null","null","null","null","null","null","null","Hospital","null","null","null","null","null","null","null","null","null","null","null","prices.nitrate.hairpin","SL-MOH","null","null","null","null","null","null","null","null","null",-13.26141933,8.465089192
"93cbca11aeb9465087107a2e10632959","openstreetmap¶w314741466","OpenStreetMap","34 Military Hospital","2","2015-12-11 10:51:22.924404+00:00","35.29%","http://www.openstreetmap.org/way/314741466","null","hospital","null","null","null","null","null","null","null","null","null","null","null","null","null","null","null","null","null","null","declining.incurs.retire","OpenStreetMap","null","null","null","null","null","null","null","null","null",-13.2608950815999,8.4639396
"1dd88238e85b4eacbcbe1711d03ad3ef","The Standby Task Force¶HF1309","US Embassy Sierra Leone","34 Military Hospital","5","2016-06-22 13:37:17.667661+00:00","41.18%","null","https://data.humdata.org/dataset/sierra-leone-healthsites","null","null","null","null","null","null","null","null","null","null","null","null","null","null","null","null","null","null","null","spray.civil.topmost","US Embassy Sierra Leone","null","null","null","null","null","null","null","null","null",-13.26073889,8.463466667
"1b8d5cfef4ef4210b8f6140a2b8c81ef","The Standby Task Force¶HF1618","MOHS DHIS","34 Military Hospital","5","2016-06-22 13:37:17.667661+00:00","47.06%","null","https://data.humdata.org/dataset/sierra-leone-healthsites","null","null","null","null","null","null","null","Military Hospital","null","null","null","null","null","null","null","null","null","null","null","prices.nitrate.hairpin","MOHS DHIS","null","null","null","null","null","null","null","null","null",-13.26141933,8.465089192
"898f1e768b3e4cc293a7ea67b32ac20b","The Standby Task Force¶HF1403","Yellow Pages, Cybo","A. K. J Pharmacy","5","2016-06-22 13:37:17.667661+00:00","47.06%","null","https://data.humdata.org/dataset/sierra-leone-healthsites","null","null","null","null","null","null","null","Pharmacy","null","null","null","null","null","null","null","null","null","null","null","secondly.husband.pipeline","Yellow Pages, Cybo","null","null","null","null","null","null","null","null","null",-13.230386,8.488098
"d30c5b6f50ff401d9cf94c2d0b590c22","The Standby Task Force¶HF1410","Yellow Pages, Cybo","A. K. J. Pharmacy (Bai Bureh Rd Kissy)","5","2016-06-22 13:37:17.667661+00:00","47.06%","null","https://data.humdata.org/dataset/sierra-leone-healthsites","null","null","null","null","null","null","null","Pharmacy","null","null","null","null","null","null","null","null","null","null","null","herring.flux.soak","Yellow Pages, Cybo","null","null","null","null","null","null","null","null","null",-13.16675,8.450347
"508641dba08d4c7793d27488efc340cd","openstreetmap¶w308521068","OpenStreetMap","AHS - Waterloo Hospital","2","2015-12-11 10:51:22.924404+00:00","35.29%","http://www.openstreetmap.org/way/308521068","null","hospital","null","null","null","null","null","null","null","null","null","null","null","null","null","null","null","null","null","null","fail.sloppily.slink","OpenStreetMap","null","null","null","null","null","null","null","null","null",-13.0735395192048,8.33569675
"16d034121e46455a999ac2b90102dca4","The Standby Task Force¶HF1307","Panoramio","AHS Waterloo Hospital","5","2016-06-22 13:37:17.667661+00:00","47.06%","null","https://data.humdata.org/dataset/sierra-leone-healthsites","null","null","null","null","null","null","null","provides medical and surgical services","null","null","null","null","null","null","null","null","null","null","null","review.engenders.fanatically","Panoramio","null","null","null","null","null","null","null","null","null",-13.073747,8.335611
"683bf7608f144a85a5dcf06bd5725af7","openstreetmap¶n3371967176","OpenStreetMap","AHS hospital building main water loo","2","2015-11-17 09:43:57.838516+00:00","35.29%","http://www.openstreetmap.org/node/3371967176","null","hospital","null","null","null","null","null","null","null","null","null","null","null","null","null","null","null","null","null","null","involuntary.unwholesome.storyboard","OpenStreetMap","null","null","null","null","null","null","null","null","null",-13.0752279,8.3372742
"c75a6becac6644cf85c6d3218b47433d","openstreetmap¶n3343683831","OpenStreetMap","APPROVED COMMUNITY HEALTH CENTER","2","2015-11-17 09:43:57.838516+00:00","35.29%","http://www.openstreetmap.org/node/3343683831","null","clinic","null","null","null","null","null","null","null","null","null","null","null","null","null","null","null","null","null","null","barman.ankle.tall","OpenStreetMap","null","null","null","null","null","null","null","null","null",-13.1761089,8.4591375
"c04de9fe5a664ceda3bdfb2673607cd4","openstreetmap¶n3342113914","OpenStreetMap","ARAB EGYPT CLINIC","2","2015-11-17 09:43:57.838516+00:00","35.29%","http://www.openstreetmap.org/node/3342113914","null","clinic","null","null","null","null","null","null","null","null","null","null","null","null","null","null","null","null","null","null","flux.mild.agrees","OpenStreetMap","null","null","null","null","null","null","null","null","null",-13.1977052,8.4720119
"7f746e6859ba4dd7925822e38a950e97","openstreetmap¶w311195619","OpenStreetMap","AWAKE HOSPITAL","2","2015-12-11 10:51:22.924404+00:00","35.29%","http://www.openstreetmap.org/way/311195619","null","hospital","null","null","null","null","null","null","null","null","null","null","null","null","null","null","null","null","null","null","twilight.tiptoes.ports","OpenStreetMap","null","null","null","null","null","null","null","null","null",-13.1537535257436,8.42004655
"2c7d469f2b8b486d8a0db7d69832b972","The Standby Task Force¶HF1310","US Embassy Sierra Leone","Abanita Hospital","5","2016-06-22 13:37:17.667661+00:00","41.18%","null","https://data.humdata.org/dataset/sierra-leone-healthsites","null","null","null","null","null","null","null","null","null","null","null","null","null","null","null","null","null","null","null","budding.crusted.filled","US Embassy Sierra Leone","null","null","null","null","null","null","null","null","null",-13.231623,8.490552
"33590c096ec84268a04e0eb9e18736e9","The Standby Task Force¶HF1547","MOHS DHIS","Abanita Hospital","5","2016-06-22 13:37:17.667661+00:00","47.06%","null","https://data.humdata.org/dataset/sierra-leone-healthsites","null","null","null","null","null","null","null","Hospital","null","null","null","null","null","null","null","null","null","null","null","camped.always.trick","MOHS DHIS","null","null","null","null","null","null","null","null","null",-13.23162593,8.490668523
"0c15925865364e7e824fdca7ae351d31","The Standby Task Force¶HF1463","Yellow Pages, Cybo","Abassa Tholley","5","2016-06-22 13:37:17.667661+00:00","47.06%","null","https://data.humdata.org/dataset/sierra-leone-healthsites","null","null","null","null","null","null","null","pharmacy","null","null","null","null","null","null","null","null","null","null","null","articulated.eyelash.stocked","Yellow Pages, Cybo","null","null","null","null","null","null","null","null","null",-13.166674,8.450007
"07bc80b2be5641d39d1a3055ccd9c53b","The Standby Task Force¶HF1169","SL-MOH","Ad- Bangs Quarry","5","2016-06-22 13:37:17.667661+00:00","41.18%","http://health.gov.sl/","https://data.humdata.org/dataset/sierra-leone-healthsites","null","null","null","null","null","null","null","Maternal and Child Health Post","null","null","null","null","null","null","null","null","null","null","null","crisis.elbow.notebook","SL-MOH","null","null","null","null","null","null","null","null","null",-13.2098,8.47941
"38f05dc44ef44a6f8bd51cabd36a0033","The Standby Task Force¶HF1114","SL-MOH","Adonkia","5","2016-06-22 13:37:17.667661+00:00","41.18%","http://health.gov.sl/","https://data.humdata.org/dataset/sierra-leone-healthsites","null","null","null","null","null","null","null","Community Health Post","null","null","null","null","null","null","null","null","null","null","null","scarf.rents.beaker","SL-MOH","null","null","null","null","null","null","null","null","null",-13.2673095,8.415735
"0ef002fe5523456296c34c7c2977d122","The Standby Task Force¶HF1656","MOHS DHIS","Adventist Health System","5","2016-06-22 13:37:17.667661+00:00","47.06%","null","https://data.humdata.org/dataset/sierra-leone-healthsites","null","null","null","null","null","null","null","Mission Hospital","null","null","null","null","null","null","null","null","null","null","null","braves.bindings.gushes","MOHS DHIS","null","null","null","null","null","null","null","null","null",-13.07355103,8.336503625
"c76a6c6eb03e4c4786ef7a1393a53cdb","The Standby Task Force¶HF1575","MOHS DHIS","African Muslim Agency","5","2016-06-22 13:37:17.667661+00:00","47.06%","null","https://data.humdata.org/dataset/sierra-leone-healthsites","null","null","null","null","null","null","null","Mission Hospital","null","null","null","null","null","null","null","null","null","null","null","subsets.deputy.kitchen","MOHS DHIS","null","null","null","null","null","null","null","null","null",-13.19386339,8.475595817
"9c50c0c010b240f18b3cb1b5b13b2ad2","The Standby Task Force¶HF0233","SL-MOH","African Muslim Agency Cli","5","2016-06-22 13:37:17.667661+00:00","41.18%","http://health.gov.sl/","https://data.humdata.org/dataset/sierra-leone-healthsites","null","null","null","null","null","null","null","Clinic","null","null","null","null","null","null","null","null","null","null","null","symphony.bunches.reluctance","SL-MOH","null","null","null","null","null","null","null","null","null",-12.05218555,8.861745647
"7518140b2cf5443bab1f18bfc732fe6e","The Standby Task Force¶HF1509","MOHS DHIS","African Muslim Agency Clinic","5","2016-06-22 13:37:17.667661+00:00","47.06%","null","https://data.humdata.org/dataset/sierra-leone-healthsites","null","null","null","null","null","null","null","Ngo Clinic","null","null","null","null","null","null","null","null","null","null","null","metro.pull.pouting","MOHS DHIS","null","null","null","null","null","null","null","null","null",-11.20196726,7.862458309
"63033ade6b3542d383d5ac8770932bf7","The Standby Task Force¶HF1732","MOHS DHIS","Ahmadiyya Mission","5","2016-06-22 13:37:17.667661+00:00","41.18%","null","https://data.humdata.org/dataset/sierra-leone-healthsites","null","null","null","null","null","null","null","Mission Clinic","null","null","null","null","null","null","null","null","null","null","null","strainer.spellers.puncturing","MOHS DHIS","null","null","null","null","null","null","null","null","null",-12.94879122,9.014166475
"51a516ab74e346a0be59cd67f3bbb8ff","The Standby Task Force¶HF1508","MOHS DHIS","Ahmadiyya Mission Hospital","5","2016-06-22 13:37:17.667661+00:00","47.06%","null","https://data.humdata.org/dataset/sierra-leone-healthsites","null","null","null","null","null","null","null","Mission Hospital","null","null","null","null","null","null","null","null","null","null","null","relaxed.take.control","MOHS DHIS","null","null","null","null","null","null","null","null","null",-11.18814727,7.889132842
"2929b4d2053446348ca18b2197c06092","The Standby Task Force¶HF1171","SL-MOH","Al-Khatab Clinic","5","2016-06-22 13:37:17.667661+00:00","41.18%","http://health.gov.sl/","https://data.humdata.org/dataset/sierra-leone-healthsites","null","null","null","null","null","null","null","Community Health Centre","null","null","null","null","null","null","null","null","null","null","null","unstable.rapport.strength","SL-MOH","null","null","null","null","null","null","null","null","null",-13.159,8.4294
"97dbe1f184ff443ca2c6460d1773c20c","The Standby Task Force¶HF1605","MOHS DHIS","Al-Sheefa Arab Clinic","5","2016-06-22 13:37:17.667661+00:00","47.06%","null","https://data.humdata.org/dataset/sierra-leone-healthsites","null","null","null","null","null","null","null","Private Clinic","null","null","null","null","null","null","null","null","null","null","null","pumpkin.comments.ruins","MOHS DHIS","null","null","null","null","null","null","null","null","null",-13.25054248,8.472653372
"4d8549b6bc1f48dbbcfc7a3a8bb8125a","The Standby Task Force¶HF1394","Yellow Pages, Cybo","Alco Pharmacy","5","2016-06-22 13:37:17.667661+00:00","47.06%","null","https://data.humdata.org/dataset/sierra-leone-healthsites","null","null","null","null","null","null","null","Pharmacy","null","null","null","null","null","null","null","null","null","null","null","note.wallet.coughed","Yellow Pages, Cybo","null","null","null","null","null","null","null","null","null",-13.233701,8.488752
"a9aa28cbb17f48dd98c45e1916249d85","OpenStreetMap¶n4504609548","OpenStreetMap","Ales Sesay","2","2016-11-16 16:13:57+00:00","41.18%","http://www.openstreetmap.org/node/4504609548","null","clinic","null","null","079478893","null","null","null","null","null","null","null","null","null","null","null","null","null","null","null","radiography.lordship.prompting","OpenStreetMap","null","null","null","null","null","null","null","null","null",-10.6741834,7.9281222
"5e0222fc09c24a38aef32ca35e2a6e3c","The Standby Task Force¶HF1461","Yellow Pages, Cybo","Alhaji Bangura Drugs Store","5","2016-06-22 13:37:17.667661+00:00","47.06%","null","https://data.humdata.org/dataset/sierra-leone-healthsites","null","null","null","null","null","null","null","pharmacy","null","null","null","null","null","null","null","null","null","null","null","rather.bowhead.farms","Yellow Pages, Cybo","null","null","null","null","null","null","null","null","null",-13.230109,8.487484
"bb2305afd7d64b71b386aa010bc7f93d","OpenStreetMap¶n4504696820","OpenStreetMap","Alhajie I Sum And","2","2016-11-16 17:37:14+00:00","41.18%","http://www.openstreetmap.org/node/4504696820","null","clinic","null","null","078637175","null","null","null","null","null","null","null","null","null","null","null","null","null","null","null","ponies.says.whooped","OpenStreetMap","null","null","null","null","null","null","null","null","null",-13.2708913,9.0490921
"09d26c194d44484f93fdc2d226027773","The Standby Task Force¶HF0493","SL-MOH","Alkalia","5","2016-06-22 13:37:17.667661+00:00","41.18%","http://health.gov.sl/","https://data.humdata.org/dataset/sierra-leone-healthsites","null","null","null","null","null","null","null","Community Health Post","null","null","null","null","null","null","null","null","null","null","null","bitters.blasting.nudge","SL-MOH","null","null","null","null","null","null","null","null","null",-11.38823019,9.148744744
"97e48003dfc84f0aa725e80a09e41d03","The Standby Task Force¶HF1167","SL-MOH","Allen Town","5","2016-06-22 13:37:17.667661+00:00","41.18%","http://health.gov.sl/","https://data.humdata.org/dataset/sierra-leone-healthsites","null","null","null","null","null","null","null","Community Health Centre","null","null","null","null","null","null","null","null","null","null","null","wicked.grows.surface","SL-MOH","null","null","null","null","null","null","null","null","null",-13.160278,8.413611
"268047f8f89744549ab8d93f06ac8ede","The Standby Task Force¶HF1578","MOHS DHIS","Allen Town Chc","5","2016-06-22 13:37:17.667661+00:00","47.06%","null","https://data.humdata.org/dataset/sierra-leone-healthsites","null","null","null","null","null","null","null","Community Health Centre","null","null","null","null","null","null","null","null","null","null","null","gripes.behave.state","MOHS DHIS","null","null","null","null","null","null","null","null","null",-13.15519604,8.418521304
"8916c9b3979240e988d435fc9cdb386e","The Standby Task Force¶HF1580","MOHS DHIS","Alpha Nonko Memorial Hospital","5","2016-06-22 13:37:17.667661+00:00","47.06%","null","https://data.humdata.org/dataset/sierra-leone-healthsites","null","null","null","null","null","null","null","Private Hospital","null","null","null","null","null","null","null","null","null","null","null","defeated.risky.globe","MOHS DHIS","null","null","null","null","null","null","null","null","null",-13.18163432,8.465313774
"41d61a8f6e5b4f92891508c1eb18200c","OpenStreetMap¶n4504637947","OpenStreetMap","Alphonsus Vandi","2","2016-11-16 16:35:37+00:00","41.18%","http://www.openstreetmap.org/node/4504637947","null","clinic","null","null","078511302","null","null","null","null","null","null","null","null","null","null","null","null","null","null","null","bouquet.longshot.tattletale","OpenStreetMap","null","null","null","null","null","null","null","null","null",-10.3391157,8.4617322
"bc88afac954a41c2af81d8a5ed60bf45","The Standby Task Force¶HF1430","Yellow Pages, Cybo","Amade Turay Pharmaceuticals","5","2016-06-22 13:37:17.667661+00:00","47.06%","null","https://data.humdata.org/dataset/sierra-leone-healthsites","null","null","null","null","null","null","null","pharmacy","null","null","null","null","null","null","null","null","null","null","null","moves.steadily.grandson","Yellow Pages, Cybo","null","null","null","null","null","null","null","null","null",-13.261309,8.477196
"5d603962011a45398078eabf841175f4","The Standby Task Force¶HF1439","Yellow Pages, Cybo","Amasil Patent Medicines","5","2016-06-22 13:37:17.667661+00:00","47.06%","null","https://data.humdata.org/dataset/sierra-leone-healthsites","null","null","null","null","null","null","null","pharmacy","null","null","null","null","null","null","null","null","null","null","null","headache.allergy.manuals","Yellow Pages, Cybo","null","null","null","null","null","null","null","null","null",-13.218885,8.489545
"0d333ff3e87f4e7c9abb221b83c9fe24","OpenStreetMap¶n4504580026","OpenStreetMap","Amina Yanbasu","2","2016-11-16 15:46:33+00:00","41.18%","http://www.openstreetmap.org/node/4504580026","null","clinic","null","null","076578821","null","null","null","null","null","null","null","null","null","null","null","null","null","null","null","instruct.sandstorm.deerskin","OpenStreetMap","null","null","null","null","null","null","null","null","null",-11.4710257,7.1758736
"e0a007cbd0794958adaac09753b177f5","OpenStreetMap¶n4504602481","OpenStreetMap","Aminata Yanbasu","2","2016-11-16 16:04:56+00:00","41.18%","http://www.openstreetmap.org/node/4504602481","null","clinic","null","null","076578821","null","null","null","null","null","null","null","null","null","null","null","null","null","null","null","suppertime.scarfs.cohesive","OpenStreetMap","null","null","null","null","null","null","null","null","null",-11.362917,7.2408248
"2cb88fbf183a44ebb586341dc24d7aa9","The Standby Task Force¶HF1419","Yellow Pages, Cybo","Amka Pharmaceutical","5","2016-06-22 13:37:17.667661+00:00","47.06%","null","https://data.humdata.org/dataset/sierra-leone-healthsites","null","null","null","null","null","null","null","Pharmacy","null","null","null","null","null","null","null","null","null","null","null","exhaled.neck.tricks","Yellow Pages, Cybo","null","null","null","null","null","null","null","null","null",-13.23282,8.489603
"c1e3cddabdbf4264bb498cad0fc59a1d","The Standby Task Force¶HF1312","Info Sierra Leone","Ansar Clinical","5","2016-06-22 13:37:17.667661+00:00","41.18%","null","https://data.humdata.org/dataset/sierra-leone-healthsites","null","null","null","null","null","null","null","null","null","null","null","null","null","null","null","null","null","null","null","develops.tweaked.mended","Info Sierra Leone","null","null","null","null","null","null","null","null","null",-13.16676,8.4543
"7aed8679b6374988b414dd201e440d2b","openstreetmap¶w308205497","OpenStreetMap","Arab Clinic","2","2015-12-11 10:51:22.924404+00:00","35.29%","http://www.openstreetmap.org/way/308205497","null","clinic","null","null","null","null","null","null","null","null","null","null","null","null","null","null","null","null","null","null","toppled.dredge.silenced","OpenStreetMap","null","null","null","null","null","null","null","null","null",-13.066293,8.326768
"8072f60e95884c10819bf1772b6e3217","The Standby Task Force¶HF1527","MOHS DHIS","Arab Clinic","5","2016-06-22 13:37:17.667661+00:00","41.18%","null","https://data.humdata.org/dataset/sierra-leone-healthsites","null","null","null","null","null","null","null","Ngo Clinic","null","null","null","null","null","null","null","null","null","null","null","frolicking.pigsty.custom","MOHS DHIS","null","null","null","null","null","null","null","null","null",-10.9777562,8.646247063
"900a5a60ea5c4599926e0073598f55b8","The Standby Task Force¶HF1657","MOHS DHIS","Arab Clinic","5","2016-06-22 13:37:17.667661+00:00","47.06%","null","https://data.humdata.org/dataset/sierra-leone-healthsites","null","null","null","null","null","null","null","Ngo Clinic","null","null","null","null","null","null","null","null","null","null","null","trumpets.sinewy.nozzle","MOHS DHIS","null","null","null","null","null","null","null","null","null",-13.06752025,8.327994398
"e2c2e00bd03d4d848222f60f38bca991","openstreetmap¶n1795616944","OpenStreetMap","Arab Clinic","2","2015-11-17 09:43:57.838516+00:00","35.29%","http://www.openstreetmap.org/node/1795616944","null","hospital","null","null","null","null","null","null","null","null","null","null","null","null","null","null","null","null","null","null","trout.leotard.elbow","OpenStreetMap","null","null","null","null","null","null","null","null","null",-11.7343721,7.9629732
"11b8425b34bc46b2aeeb5008e86f998a","openstreetmap¶w308767430","OpenStreetMap","Arab Clinic Health Centre","2","2015-12-11 10:51:22.924404+00:00","35.29%","http://www.openstreetmap.org/way/308767430","null","clinic","null","null","null","null","null","null","null","null","null","null","null","null","null","null","null","null","null","null","ointments.catfight.ascribes","OpenStreetMap","null","null","null","null","null","null","null","null","null",-13.0604708444408,8.3284146
"94a0edaa5c7946b5a0b84e4301ce1a55","The Standby Task Force¶HF1567","MOHS DHIS","Arabic Mission Clinic","5","2016-06-22 13:37:17.667661+00:00","47.06%","null","https://data.humdata.org/dataset/sierra-leone-healthsites","null","null","null","null","null","null","null","Mission Clinic","null","null","null","null","null","null","null","null","null","null","null","fell.averages.raves","MOHS DHIS","null","null","null","null","null","null","null","null","null",-13.22797477,8.488780424
"6b6646d3fff7426e80602b2c70102208","The Standby Task Force¶HF1466","Info Sierra Leone","Ash Iye Health Care","5","2016-06-22 13:37:17.667661+00:00","47.06%","null","https://data.humdata.org/dataset/sierra-leone-healthsites","null","null","null","null","null","null","null","GP TBC","null","null","null","null","null","null","null","null","null","null","null","eats.delay.steep","Info Sierra Leone","null","null","null","null","null","null","null","null","null",-11.193094,7.869459
"2aa50de18a5b4acb84e25ca80ce2eaea","OpenStreetMap¶n4260095999","OpenStreetMap","Aspen Medical Sierra Leone Private Hospital","2","2016-06-23 08:52:33+00:00","29.41%","http://www.openstreetmap.org/node/4260095999","null","hospital","null","null","null","null","null","null","null","null","null","null","null","null","null","null","null","null","null","null","libraries.activity.pits","OpenStreetMap","null","null","null","null","null","null","null","null","null",-13.2463191,8.4724473
"016c9a8a12304e559f252eaa3c9b066a","The Standby Task Force¶HF1472","Yellow Pages, Cybo","Aunty Bee Drug Store","5","2016-06-22 13:37:17.667661+00:00","47.06%","null","https://data.humdata.org/dataset/sierra-leone-healthsites","null","null","null","null","null","null","null","pharmacy","null","null","null","null","null","null","null","null","null","null","null","regular.terminology.carting","Yellow Pages, Cybo","null","null","null","null","null","null","null","null","null",-13.19159,8.472704
"39a6b60055ab4e22b9c3eafbb863b391","The Standby Task Force¶HF1313","Info Sierra Leone","B. K. Meditation Centre","5","2016-06-22 13:37:17.667661+00:00","41.18%","null","https://data.humdata.org/dataset/sierra-leone-healthsites","null","null","null","null","null","null","null","null","null","null","null","null","null","null","null","null","null","null","null","impaled.truly.rams","Info Sierra Leone","null","null","null","null","null","null","null","null","null",-13.238338,8.48445
"f211a1cbbde4431288e3bb8bc5e483e6","The Standby Task Force¶HF1435","Yellow Pages, Cybo","BIS-MAC Drug Store","5","2016-06-22 13:37:17.667661+00:00","47.06%","null","https://data.humdata.org/dataset/sierra-leone-healthsites","null","null","null","null","null","null","null","pharmacy","null","null","null","null","null","null","null","null","null","null","null","candles.setting.winning","Yellow Pages, Cybo","null","null","null","null","null","null","null","null","null",-13.241988,8.483403
"ca26429bf70241bba913b8a8d7300751","The Standby Task Force¶HF0111","SL-MOH","Baama","5","2016-06-22 13:37:17.667661+00:00","41.18%","http://health.gov.sl/","https://data.humdata.org/dataset/sierra-leone-healthsites","null","null","null","null","null","null","null","Community Health Centre","null","null","null","null","null","null","null","null","null","null","null","cobbled.feral.snowfall","SL-MOH","null","null","null","null","null","null","null","null","null",-11.2878182,8.2156619
"0dde891ad7074cabb2f04d5db7f42e1e","The Standby Task Force¶HF1518","MOHS DHIS","Baama Chc","5","2016-06-22 13:37:17.667661+00:00","41.18%","null","https://data.humdata.org/dataset/sierra-leone-healthsites","null","null","null","null","null","null","null","Community Health Centre","null","null","null","null","null","null","null","null","null","null","null","disturbed.strobe.showroom","MOHS DHIS","null","null","null","null","null","null","null","null","null",-11.33301506,8.359647442
"af01281287ee4b7b8fe99780506c0e72","The Standby Task Force¶HF0591","SL-MOH","Babara","5","2016-06-22 13:37:17.667661+00:00","41.18%","http://health.gov.sl/","https://data.humdata.org/dataset/sierra-leone-healthsites","null","null","null","null","null","null","null","Community Health Centre","null","null","null","null","null","null","null","null","null","null","null","multiplayer.devoured.pamphlets","SL-MOH","null","null","null","null","null","null","null","null","null",-13.13175289,8.827126964
"ad787e5b55d34408bfbccf7c7f890c40","The Standby Task Force¶HF0494","SL-MOH","Badakarifaia","5","2016-06-22 13:37:17.667661+00:00","41.18%","http://health.gov.sl/","https://data.humdata.org/dataset/sierra-leone-healthsites","null","null","null","null","null","null","null","Maternal and Child Health Post","null","null","null","null","null","null","null","null","null","null","null","wrench.rebuilt.contests","SL-MOH","null","null","null","null","null","null","null","null","null",-11.191982,9.2700759
"7d4e659b9e3e4e5d893da9e7b332836b","The Standby Task Force¶HF0522","SL-MOH","Bafodia","5","2016-06-22 13:37:17.667661+00:00","41.18%","http://health.gov.sl/","https://data.humdata.org/dataset/sierra-leone-healthsites","null","null","null","null","null","null","null","Community Health Centre","null","null","null","null","null","null","null","null","null","null","null","takeover.converts.acronyms","SL-MOH","null","null","null","null","null","null","null","null","null",-11.7341312,9.6828327
"48420c71ac2340ddbfc15ce9454618c2","The Standby Task Force¶HF1644","MOHS DHIS","Bai Bureh Memorial Hosp.","5","2016-06-22 13:37:17.667661+00:00","47.06%","null","https://data.humdata.org/dataset/sierra-leone-healthsites","null","null","null","null","null","null","null","Private Hospital","null","null","null","null","null","null","null","null","null","null","null","staples.animate.happily","MOHS DHIS","null","null","null","null","null","null","null","null","null",-13.19969392,8.601400655
"53bbbb5037c54b3baf8c59666ec8257c","The Standby Task Force¶HF0978","SL-MOH","Bai-Largo","5","2016-06-22 13:37:17.667661+00:00","41.18%","http://health.gov.sl/","https://data.humdata.org/dataset/sierra-leone-healthsites","null","null","null","null","null","null","null","Maternal and Child Health Post","null","null","null","null","null","null","null","null","null","null","null","stream.infuses.supporter","SL-MOH","null","null","null","null","null","null","null","null","null",-12.1569751,8.2798032
"4c98350ffe6c443f9eab4ebcc7e29068","The Standby Task Force¶HF0198","SL-MOH","Baiama","5","2016-06-22 13:37:17.667661+00:00","41.18%","http://health.gov.sl/","https://data.humdata.org/dataset/sierra-leone-healthsites","null","null","null","null","null","null","null","Maternal and Child Health Post","null","null","null","null","null","null","null","null","null","null","null","unalterable.realities.dummy","SL-MOH","null","null","null","null","null","null","null","null","null",-10.9437162,8.734578
"f39a5a042df04458a8bf6b511ca29e66","The Standby Task Force¶HF1698","MOHS DHIS","Baiima Chp","5","2016-06-22 13:37:17.667661+00:00","47.06%","null","https://data.humdata.org/dataset/sierra-leone-healthsites","null","null","null","null","null","null","null","Community Health Post","null","null","null","null","null","null","null","null","null","null","null","trendiness.screened.converts","MOHS DHIS","null","null","null","null","null","null","null","null","null",-10.76484406,8.030179536
"197f08e2e541420f87346b4b06f80244","The Standby Task Force¶HF1659","MOHS DHIS","Baiwala Chp","5","2016-06-22 13:37:17.667661+00:00","47.06%","null","https://data.humdata.org/dataset/sierra-leone-healthsites","null","null","null","null","null","null","null","Community Health Post","null","null","null","null","null","null","null","null","null","null","null","gazed.matters.radius","MOHS DHIS","null","null","null","null","null","null","null","null","null",-10.64780783,7.996468603
"106d7f5e6d3c4e5a9ac539b9382912a4","The Standby Task Force¶HF0327","SL-MOH","Bakeloko","5","2016-06-22 13:37:17.667661+00:00","41.18%","http://health.gov.sl/","https://data.humdata.org/dataset/sierra-leone-healthsites","null","null","null","null","null","null","null","Community Health Post","null","null","null","null","null","null","null","null","null","null","null","obtuseness.exuberance.airfield","SL-MOH","null","null","null","null","null","null","null","null","null",-12.2943682,8.3988013
"383f65020ffd44f7a6c743524047f564","The Standby Task Force¶HF0718","SL-MOH","Bakeloko","5","2016-06-22 13:37:17.667661+00:00","41.18%","http://health.gov.sl/","https://data.humdata.org/dataset/sierra-leone-healthsites","null","null","null","null","null","null","null","Community Health Post","null","null","null","null","null","null","null","null","null","null","null","originates.usurps.hurrying","SL-MOH","null","null","null","null","null","null","null","null","null",-12.29344767,8.396471192
"65397472afa847fba1095540fd1013d9","The Standby Task Force¶HF1431","Yellow Pages, Cybo","Balmus","5","2016-06-22 13:37:17.667661+00:00","47.06%","null","https://data.humdata.org/dataset/sierra-leone-healthsites","null","null","null","null","null","null","null","pharmacy","null","null","null","null","null","null","null","null","null","null","null","november.digit.endings","Yellow Pages, Cybo","null","null","null","null","null","null","null","null","null",-13.23071,8.48785
"e0c1a2409c23428c85c364ef0f36faf0","The Standby Task Force¶HF0109","SL-MOH","Bambara","5","2016-06-22 13:37:17.667661+00:00","41.18%","http://health.gov.sl/","https://data.humdata.org/dataset/sierra-leone-healthsites","null","null","null","null","null","null","null","Maternal and Child Health Post","null","null","null","null","null","null","null","null","null","null","null","throttle.yardstick.restrictions","SL-MOH","null","null","null","null","null","null","null","null","null",-11.346071,8.3169606
"a45abe396bc34a77be6b9de89a410759","The Standby Task Force¶HF0032","SL-MOH","Bambara Kaima","5","2016-06-22 13:37:17.667661+00:00","41.18%","http://health.gov.sl/","https://data.humdata.org/dataset/sierra-leone-healthsites","null","null","null","null","null","null","null","Community Health Post","null","null","null","null","null","null","null","null","null","null","null","denial.serve.sweetest","SL-MOH","null","null","null","null","null","null","null","null","null",-11.35,8.31667
"f6f137866ae04df09254165137d9990d","The Standby Task Force¶HR1517","MOHS DHIS","Bambara Mchp","5","2016-06-22 13:37:17.667661+00:00","41.18%","null","https://data.humdata.org/dataset/sierra-leone-healthsites","null","null","null","null","null","null","null","Maternal and Child Health Post","null","null","null","null","null","null","null","null","null","null","null","lawnmowers.extend.sunburnt","MOHS DHIS","null","null","null","null","null","null","null","null","null",-11.34551293,8.317248345
"6e2977c7dfef46959e3b7c40100e665c","The Standby Task Force¶HF0077","SL-MOH","Bambawolo","5","2016-06-22 13:37:17.667661+00:00","41.18%","http://health.gov.sl/","https://data.humdata.org/dataset/sierra-leone-healthsites","null","null","null","null","null","null","null","Community Health Post","null","null","null","null","null","null","null","null","null","null","null","honed.acquainted.sapping","SL-MOH","null","null","null","null","null","null","null","null","null",-11.1321693,8.0086859
"049c5488aeed484888104b6493fc9b4e","The Standby Task Force¶HF0935","SL-MOH","Bambuibu Tommy","5","2016-06-22 13:37:17.667661+00:00","41.18%","http://health.gov.sl/","https://data.humdata.org/dataset/sierra-leone-healthsites","null","null","null","null","null","null","null","Maternal and Child Health Post","null","null","null","null","null","null","null","null","null","null","null","damply.decker.childproof","SL-MOH","null","null","null","null","null","null","null","null","null",-12.1627007,7.9788986
"449730a10adb4f4399c8944e0ab4896b","The Standby Task Force¶HF0510","SL-MOH","Bambukoro","5","2016-06-22 13:37:17.667661+00:00","41.18%","http://health.gov.sl/","https://data.humdata.org/dataset/sierra-leone-healthsites","null","null","null","null","null","null","null","Maternal and Child Health Post","null","null","null","null","null","null","null","null","null","null","null","resizing.highland.sheepishly","SL-MOH","null","null","null","null","null","null","null","null","null",-11.4061518,9.5468847
"fcc9c37aab2a4a4f900f484e923c1446","OpenStreetMap¶n4504613258","OpenStreetMap","Banadete Sesay","2","2016-11-16 16:20:33+00:00","41.18%","http://www.openstreetmap.org/node/4504613258","null","clinic","null","null","078665555","null","null","null","null","null","null","null","null","null","null","null","null","null","null","null","finalist.indoor.excited","OpenStreetMap","null","null","null","null","null","null","null","null","null",-10.7262489,8.0368762
"0e69ce1e6e4c4ab48e6ead21569446c7","The Standby Task Force¶HF0797","SL-MOH","Bandajuma","5","2016-06-22 13:37:17.667661+00:00","47.06%","http://health.gov.sl/","https://data.humdata.org/dataset/sierra-leone-healthsites","null","null","null","null","null","null","null","Maternal and Child Health Post","null","null","null","null","null","null","null","null","null","null","null","salivate.ethnically.unsaturated","SL-MOH","null","null","null","null","null","null","null","null","null",-11.4850995,8.2664694
"9b8958e6556446a6b94b42d6ac035f88","The Standby Task Force¶HF1104","SL-MOH","Bandajuma","5","2016-06-22 13:37:17.667661+00:00","41.18%","http://health.gov.sl/","https://data.humdata.org/dataset/sierra-leone-healthsites","null","null","null","null","null","null","null","Community Health Centre","null","null","null","null","null","null","null","null","null","null","null","reactivated.inhumanly.triggering","SL-MOH","null","null","null","null","null","null","null","null","null",-11.410725,7.3713601
"2c3cf6ca05874ad9b81c9551aebc891b","The Standby Task Force¶HF1727","MOHS DHIS","Bandajuma Chc","5","2016-06-22 13:37:17.667661+00:00","47.06%","null","https://data.humdata.org/dataset/sierra-leone-healthsites","null","null","null","null","null","null","null","Community Health Centre","null","null","null","null","null","null","null","null","null","null","null","songwriting.infer.intrigue","MOHS DHIS","null","null","null","null","null","null","null","null","null",-10.848652,8.310802102
"e4f5ee05448e4776ad4898624aa8f051","The Standby Task Force¶HF1491","SL-MOH","Bandajuma Clinic","5","2016-06-22 13:37:17.667661+00:00","41.18%","http://health.gov.sl/","https://data.humdata.org/dataset/sierra-leone-healthsites","null","null","null","null","null","null","null","Clinic","null","null","null","null","null","null","null","null","null","null","null","vortex.stroke.untangled","SL-MOH","null","null","null","null","null","null","null","null","null",-11.6664103,7.943548003
"7305806992e4411387d43b01403cd2e9","OpenStreetMap¶n4504696794","OpenStreetMap","Bandajuma Community Center","2","2016-11-16 17:37:09+00:00","41.18%","http://www.openstreetmap.org/node/4504696794","null","hospital","null","null","076973782","null","null","null","null","null","null","null","null","null","null","null","null","null","null","null","scant.vials.crowding","OpenStreetMap","null","null","null","null","null","null","null","null","null",-10.8484411,8.3099996
"4c1c58f82b0a4c158d3575b6c6094105","The Standby Task Force¶HF1703","MOHS DHIS","Bandajuma Kpolihun Chp","5","2016-06-22 13:37:17.667661+00:00","47.06%","null","https://data.humdata.org/dataset/sierra-leone-healthsites","null","null","null","null","null","null","null","Community Health Post","null","null","null","null","null","null","null","null","null","null","null","dude.humbly.inarguable","MOHS DHIS","null","null","null","null","null","null","null","null","null",-10.89838401,8.022885802
"e763af07cbbc48bbb981527a8ab2b7eb","The Standby Task Force¶HF1679","MOHS DHIS","Bandajuma Mchp","5","2016-06-22 13:37:17.667661+00:00","47.06%","null","https://data.humdata.org/dataset/sierra-leone-healthsites","null","null","null","null","null","null","null","Maternal and Child Health Post","null","null","null","null","null","null","null","null","null","null","null","slewed.exonerate.nuclei","MOHS DHIS","null","null","null","null","null","null","null","null","null",-10.58574775,8.221769629
"b6441193be1e4466a2716a32aa83f359","OpenStreetMap¶n4504696817","OpenStreetMap","Bandapirie","2","2016-12-05 15:05:42+00:00","41.18%","http://www.openstreetmap.org/node/4504696817","null","clinic","null","null","078714090","null","null","null","null","null","null","null","null","null","null","null","null","null","null","null","shutdowns.differential.superiorly","OpenStreetMap","null","null","null","null","null","null","null","null","null",-10.7374573,8.9400455
"e9fcc64b502e49b4a53539d916beca43","The Standby Task Force¶HF1017","SL-MOH","Bandasuma","5","2016-06-22 13:37:17.667661+00:00","41.18%","http://health.gov.sl/","https://data.humdata.org/dataset/sierra-leone-healthsites","null","null","null","null","null","null","null","Community Health Centre","null","null","null","null","null","null","null","null","null","null","null","unspecific.relationships.conspire","SL-MOH","null","null","null","null","null","null","null","null","null",-12.6949263,8.191977
"5451b2650a484f22af5c301d8d5805f7","The Standby Task Force¶HF0122","SL-MOH","Bandasuma Fiama","5","2016-06-22 13:37:17.667661+00:00","41.18%","http://health.gov.sl/","https://data.humdata.org/dataset/sierra-leone-healthsites","null","null","null","null","null","null","null","Maternal and Child Health Post","null","null","null","null","null","null","null","null","null","null","null","burnings.tether.indoor","SL-MOH","null","null","null","null","null","null","null","null","null",-10.7135315,8.5230376
"f1655462f3174f6684b5179fb3e05639","OpenStreetMap¶n4504695155","OpenStreetMap","Bandasuma Health Post","2","2016-11-16 17:43:04+00:00","41.18%","http://www.openstreetmap.org/node/4504695155","null","hospital","null","null","076 874094","null","null","null","null","null","null","null","null","null","null","null","null","null","null","null","headlined.exits.highland","OpenStreetMap","null","null","null","null","null","null","null","null","null",-10.7097588,8.5267376
"7816336178d54df1a262b330c01cadff","OpenStreetMap¶n4504696814","OpenStreetMap","Bandasuma MCHP","2","2016-12-14 05:14:55+00:00","35.29%","http://www.openstreetmap.org/node/4504696814","null","clinic","null","null","030146613","null","null","null","null","null","null","null","null","null","null","null","null","null","null","null","roundabout.discoverers.lorry","OpenStreetMap","null","null","null","null","null","null","null","null","null",-10.8587482,8.4403943
"2c25aba74e7e45e69e3203170fd8559e","The Standby Task Force¶HF0192","SL-MOH","Bandasuma Soa","5","2016-06-22 13:37:17.667661+00:00","41.18%","http://health.gov.sl/","https://data.humdata.org/dataset/sierra-leone-healthsites","null","null","null","null","null","null","null","Community Health Post","null","null","null","null","null","null","null","null","null","null","null","burnings.tether.indoor","SL-MOH","null","null","null","null","null","null","null","null","null",-10.7135315,8.5230376
"672826a805e442d19d13fa0ac5f5b420","The Standby Task Force¶HF0073","SL-MOH","Bandawor","5","2016-06-22 13:37:17.667661+00:00","41.18%","http://health.gov.sl/","https://data.humdata.org/dataset/sierra-leone-healthsites","null","null","null","null","null","null","null","Maternal and Child Health Post","null","null","null","null","null","null","null","null","null","null","null","hitchhikers.expecting.tragically","SL-MOH","null","null","null","null","null","null","null","null","null",-11.36702503,7.761761424
"deab784b567042f0a27e96b797d00936","The Standby Task Force¶HF0180","SL-MOH","Bangabaya","5","2016-06-22 13:37:17.667661+00:00","41.18%","http://health.gov.sl/","https://data.humdata.org/dataset/sierra-leone-healthsites","null","null","null","null","null","null","null","Maternal and Child Health Post","null","null","null","null","null","null","null","null","null","null","null","wriggling.successive.insider","SL-MOH","null","null","null","null","null","null","null","null","null",-11.1713755,8.8186751
"4814f972c185491993c2133cf2ac7556","The Standby Task Force¶HF1109","SL-MOH","Bangorma","5","2016-06-22 13:37:17.667661+00:00","41.18%","http://health.gov.sl/","https://data.humdata.org/dataset/sierra-leone-healthsites","null","null","null","null","null","null","null","Maternal and Child Health Post","null","null","null","null","null","null","null","null","null","null","null","glug.cultured.relational","SL-MOH","null","null","null","null","null","null","null","null","null",-11.8429082,7.2234226
"9e42def040e64879be1d9fb87b946240","The Standby Task Force¶HF0383","SL-MOH","Bankamakulor","5","2016-06-22 13:37:17.667661+00:00","41.18%","http://health.gov.sl/","https://data.humdata.org/dataset/sierra-leone-healthsites","null","null","null","null","null","null","null","Maternal and Child Health Post","null","null","null","null","null","null","null","null","null","null","null","glue.apprehends.extending","SL-MOH","null","null","null","null","null","null","null","null","null",-12.72006041,9.152341275
"081971083c584ce8ad769540398685fa","The Standby Task Force¶HF0043","SL-MOH","Baoma Koya","5","2016-06-22 13:37:17.667661+00:00","41.18%","http://health.gov.sl/","https://data.humdata.org/dataset/sierra-leone-healthsites","null","null","null","null","null","null","null","Community Health Centre","null","null","null","null","null","null","null","null","null","null","null","disengaged.inoperative.shaped","SL-MOH","null","null","null","null","null","null","null","null","null",-11.302915,7.55205
"39ee59fe0bc34a069eaad1635e4e170a","The Standby Task Force¶HF0900","SL-MOH","Baoma Kpengeh","5","2016-06-22 13:37:17.667661+00:00","41.18%","http://health.gov.sl/","https://data.humdata.org/dataset/sierra-leone-healthsites","null","null","null","null","null","null","null","Community Health Post","null","null","null","null","null","null","null","null","null","null","null","success.categorical.confusedly","SL-MOH","null","null","null","null","null","null","null","null","null",-12.2299067,7.4476715
"c81f10ac306748599f646085ebeb62f1","The Standby Task Force¶HF1682","MOHS DHIS","Baoma Mchp","5","2016-06-22 13:37:17.667661+00:00","47.06%","null","https://data.humdata.org/dataset/sierra-leone-healthsites","null","null","null","null","null","null","null","Maternal and Child Health Post","null","null","null","null","null","null","null","null","null","null","null","innermost.storing.spurns","MOHS DHIS","null","null","null","null","null","null","null","null","null",-10.65651012,8.277850567
"afa618725aa942d5a5d71022a91a9bbe","The Standby Task Force¶HF0038","SL-MOH","Baoma Oil Mill","5","2016-06-22 13:37:17.667661+00:00","41.18%","http://health.gov.sl/","https://data.humdata.org/dataset/sierra-leone-healthsites","null","null","null","null","null","null","null","Community Health Centre","null","null","null","null","null","null","null","null","null","null","null","educating.refusal.papaya","SL-MOH","null","null","null","null","null","null","null","null","null",-11.3296562,8.0441039
"4f7206fa5f85461cb47d5268b7296931","The Standby Task Force¶HF1715","MOHS DHIS","Baoma Peje Chp","5","2016-06-22 13:37:17.667661+00:00","47.06%","null","https://data.humdata.org/dataset/sierra-leone-healthsites","null","null","null","null","null","null","null","Community Health Post","null","null","null","null","null","null","null","null","null","null","null","gist.catapulting.devise","MOHS DHIS","null","null","null","null","null","null","null","null","null",-10.79601223,8.240206235
"26200f3b34724682a4b66770bb2911b9","The Standby Task Force¶HF0761","SL-MOH","Baoma Station","5","2016-06-22 13:37:17.667661+00:00","41.18%","http://health.gov.sl/","https://data.humdata.org/dataset/sierra-leone-healthsites","null","null","null","null","null","null","null","Community Health Post","null","null","null","null","null","null","null","null","null","null","null","divergences.pleaser.guardian","SL-MOH","null","null","null","null","null","null","null","null","null",-11.4384142,7.930117698
"2bb3792252514a4a8dec418474d913fb","The Standby Task Force¶HF0849","SL-MOH","Baomahun","5","2016-06-22 13:37:17.667661+00:00","41.18%","http://health.gov.sl/","https://data.humdata.org/dataset/sierra-leone-healthsites","null","null","null","null","null","null","null","Community Health Centre","null","null","null","null","null","null","null","null","null","null","null","interfacing.kitten.twittered","SL-MOH","null","null","null","null","null","null","null","null","null",-11.5457184,8.2896554
"2a36ea94649143c3ad5b09132e1f7e74","The Standby Task Force¶HF0388","SL-MOH","Bapuya","5","2016-06-22 13:37:17.667661+00:00","41.18%","http://health.gov.sl/","https://data.humdata.org/dataset/sierra-leone-healthsites","null","null","null","null","null","null","null","Community Health Post","null","null","null","null","null","null","null","null","null","null","null","included.punchy.permissive","SL-MOH","null","null","null","null","null","null","null","null","null",-13.11070099,9.009555645
"65a349f4973c4060a8d46a5c667a8b3b","The Standby Task Force¶HF0349","SL-MOH","Barakuya","5","2016-06-22 13:37:17.667661+00:00","41.18%","http://health.gov.sl/","https://data.humdata.org/dataset/sierra-leone-healthsites","null","null","null","null","null","null","null","Maternal and Child Health Post","null","null","null","null","null","null","null","null","null","null","null","throttle.bagpipes.loveable","SL-MOH","null","null","null","null","null","null","null","null","null",-12.6337732,9.4791163
"98dfeb1a69014532b29a11584fec1273","The Standby Task Force¶HF0756","SL-MOH","Barlie","5","2016-06-22 13:37:17.667661+00:00","41.18%","http://health.gov.sl/","https://data.humdata.org/dataset/sierra-leone-healthsites","null","null","null","null","null","null","null","MCommunity Health Centre","null","null","null","null","null","null","null","null","null","null","null","perishing.glossed.glossary","SL-MOH","null","null","null","null","null","null","null","null","null",-11.58576225,8.020407882
"d3b3892ad5b24573a6f2a574fd16d29a","The Standby Task Force¶HF0539","SL-MOH","Barmoi","5","2016-06-22 13:37:17.667661+00:00","41.18%","http://health.gov.sl/","https://data.humdata.org/dataset/sierra-leone-healthsites","null","null","null","null","null","null","null","Maternal and Child Health Post","null","null","null","null","null","null","null","null","null","null","null","cobs.icecap.pine","SL-MOH","null","null","null","null","null","null","null","null","null",-12.6296061,8.9861383
"eba6d25bf931425aae22142765cb682f","The Standby Task Force¶HF0361","SL-MOH","Barmoi Luma","5","2016-06-22 13:37:17.667661+00:00","41.18%","http://health.gov.sl/","https://data.humdata.org/dataset/sierra-leone-healthsites","null","null","null","null","null","null","null","Community Health Post","null","null","null","null","null","null","null","null","null","null","null","outcompete.industrialist.spoiling","SL-MOH","null","null","null","null","null","null","null","null","null",-12.91372959,9.041114189
"e964103ebd1a47138dac60b1b9869cf1","The Standby Task Force¶HF0384","SL-MOH","Barmoi munu","5","2016-06-22 13:37:17.667661+00:00","41.18%","http://health.gov.sl/","https://data.humdata.org/dataset/sierra-leone-healthsites","null","null","null","null","null","null","null","Community Health Centre","null","null","null","null","null","null","null","null","null","null","null","thanksgiving.depicted.gridlock","SL-MOH","null","null","null","null","null","null","null","null","null",-12.75015571,9.092867513
"2c07a073f4664efc82f798f7e3a4de8d","OpenStreetMap¶n4504695169","OpenStreetMap","Barukuya Health Center","2","2016-11-16 17:37:05+00:00","41.18%","http://www.openstreetmap.org/node/4504695169","null","clinic","null","null","076433353","null","null","null","null","null","null","null","null","null","null","null","null","null","null","null","wondrous.adorned.allies","OpenStreetMap","null","null","null","null","null","null","null","null","null",-12.6394272,9.4581951
"78a3760a45a94daaac9be7668de175d8","The Standby Task Force¶HF0660","SL-MOH","Bassaia","5","2016-06-22 13:37:17.667661+00:00","41.18%","http://health.gov.sl/","https://data.humdata.org/dataset/sierra-leone-healthsites","null","null","null","null","null","null","null","Maternal and Child Health Post","null","null","null","null","null","null","null","null","null","null","null","veneer.destitution.refresher","SL-MOH","null","null","null","null","null","null","null","null","null",-11.78099926,8.985096809
"cee1686a633248e3977f80c438328ccc","The Standby Task Force¶HF0328","SL-MOH","Bath bana","5","2016-06-22 13:37:17.667661+00:00","41.18%","http://health.gov.sl/","https://data.humdata.org/dataset/sierra-leone-healthsites","null","null","null","null","null","null","null","Maternal and Child Health Post","null","null","null","null","null","null","null","null","null","null","null","enzymes.previews.replay","SL-MOH","null","null","null","null","null","null","null","null","null",-12.48680514,8.358071647
"cde29eb738bd421a98c7580e8f366281","The Standby Task Force¶HF0719","SL-MOH","Bathbana","5","2016-06-22 13:37:17.667661+00:00","41.18%","http://health.gov.sl/","https://data.humdata.org/dataset/sierra-leone-healthsites","null","null","null","null","null","null","null","Maternal and Child Health Post","null","null","null","null","null","null","null","null","null","null","null","taste.unmentioned.varnish","SL-MOH","null","null","null","null","null","null","null","null","null",-12.4476322,8.3349858
"32ccbd534abe43e79b2bdec91cb03fe6","The Standby Task Force¶HF0856","SL-MOH","Bathurst","5","2016-06-22 13:37:17.667661+00:00","41.18%","http://health.gov.sl/","https://data.humdata.org/dataset/sierra-leone-healthsites","null","null","null","null","null","null","null","Maternal and Child Health Post","null","null","null","null","null","null","null","null","null","null","null","redesign.cajoles.wrinkle","SL-MOH","null","null","null","null","null","null","null","null","null",-11.6723955,7.6342172
"924df8b481be4f6e915c61b8979fcf78","The Standby Task Force¶HF1647","MOHS DHIS","Batist Eye Hos. Sawktarr","5","2016-06-22 13:37:17.667661+00:00","47.06%","null","https://data.humdata.org/dataset/sierra-leone-healthsites","null","null","null","null","null","null","null","Mission Hospital","null","null","null","null","null","null","null","null","null","null","null","pining.drench.frostbitten","MOHS DHIS","null","null","null","null","null","null","null","null","null",-13.20418669,8.629150255
"8132137107f342f8a949ec5a95d6391b","The Standby Task Force¶HF0266","SL-MOH","Batkanu","5","2016-06-22 13:37:17.667661+00:00","41.18%","http://health.gov.sl/","https://data.humdata.org/dataset/sierra-leone-healthsites","null","null","null","null","null","null","null","Community Health Centre","null","null","null","null","null","null","null","null","null","null","null","disarm.innocence.feats","SL-MOH","null","null","null","null","null","null","null","null","null",-12.41478808,9.077396698
"ca602ec69b0749a0a4295ac5ced561c0","The Standby Task Force¶HF0973","SL-MOH","Bauya","5","2016-06-22 13:37:17.667661+00:00","41.18%","http://health.gov.sl/","https://data.humdata.org/dataset/sierra-leone-healthsites","null","null","null","null","null","null","null","Community Health Centre","null","null","null","null","null","null","null","null","null","null","null","thatched.inviting.lifesaver","SL-MOH","null","null","null","null","null","null","null","null","null",-12.572867,8.1883744
"7ee1ac7f0e974728a2b060b88d5f55d1","The Standby Task Force¶HF1061","SL-MOH","Bayama","5","2016-06-22 13:37:17.667661+00:00","41.18%","http://health.gov.sl/","https://data.humdata.org/dataset/sierra-leone-healthsites","null","null","null","null","null","null","null","Maternal and Child Health Post","null","null","null","null","null","null","null","null","null","null","null","intranets.arranging.skimming","SL-MOH","null","null","null","null","null","null","null","null","null",-11.7235762,7.4091101
"064390fa6b5c48e684d33c44e8bdd4e7","The Standby Task Force¶HF1670","MOHS DHIS","Bayama Chp","5","2016-06-22 13:37:17.667661+00:00","47.06%","null","https://data.humdata.org/dataset/sierra-leone-healthsites","null","null","null","null","null","null","null","Community Health Post","null","null","null","null","null","null","null","null","null","null","null","suit.greeting.painting","MOHS DHIS","null","null","null","null","null","null","null","null","null",-10.44618443,8.309918725
"20b7efe61d9244b89cd7c5f806163323","The Standby Task Force¶HF0017","SL-MOH","Belebu","5","2016-06-22 13:37:17.667661+00:00","41.18%","http://health.gov.sl/","https://data.humdata.org/dataset/sierra-leone-healthsites","null","null","null","null","null","null","null","Community Health Post","null","null","null","null","null","null","null","null","null","null","null","redefine.stretched.achieved","SL-MOH","null","null","null","null","null","null","null","null","null",-11.0406959,7.6046903
"3b20120ac01a449b88a221cba2c45f3c","The Standby Task Force¶HF1510","MOHS DHIS","Belebu Chp","5","2016-06-22 13:37:17.667661+00:00","41.18%","null","https://data.humdata.org/dataset/sierra-leone-healthsites","null","null","null","null","null","null","null","Community Health Post","null","null","null","null","null","null","null","null","null","null","null","preheating.divisional.beautify","MOHS DHIS","null","null","null","null","null","null","null","null","null",-11.04287099,7.606597717
"81fe023949cd462c99a392ee37c7a524","The Standby Task Force¶HF0924","SL-MOH","Belletin","5","2016-06-22 13:37:17.667661+00:00","41.18%","http://health.gov.sl/","https://data.humdata.org/dataset/sierra-leone-healthsites","null","null","null","null","null","null","null","Community Health Post","null","null","null","null","null","null","null","null","null","null","null","vests.tray.airspace","SL-MOH","null","null","null","null","null","null","null","null","null",-12.7648614,8.1036172
"bed13e797e604f47a02d41acef40b547","The Standby Task Force¶HF1458","Yellow Pages, Cybo","Belsoh Chemist","5","2016-06-22 13:37:17.667661+00:00","47.06%","null","https://data.humdata.org/dataset/sierra-leone-healthsites","null","null","null","null","null","null","null","pharmacy","null","null","null","null","null","null","null","null","null","null","null","articulated.eyelash.stocked","Yellow Pages, Cybo","null","null","null","null","null","null","null","null","null",-13.166674,8.450007
"4800f4271f634490a80120bafe856eed","The Standby Task Force¶HF0069","SL-MOH","Bendoma","5","2016-06-22 13:37:17.667661+00:00","41.18%","http://health.gov.sl/","https://data.humdata.org/dataset/sierra-leone-healthsites","null","null","null","null","null","null","null","Maternal and Child Health Post","null","null","null","null","null","null","null","null","null","null","null","upbeat.steamroller.staplers","SL-MOH","null","null","null","null","null","null","null","null","null",-10.89537834,8.23086213
"647990c3afb54d168427769500d6ebfe","The Standby Task Force¶HF0070","SL-MOH","Bendu","5","2016-06-22 13:37:17.667661+00:00","41.18%","http://health.gov.sl/","https://data.humdata.org/dataset/sierra-leone-healthsites","null","null","null","null","null","null","null","Community Health Centre","null","null","null","null","null","null","null","null","null","null","null","extract.native.renegades","SL-MOH","null","null","null","null","null","null","null","null","null",-10.9703976,8.0975605
"d1a61b8425514fe58886b5a3026e6f92","The Standby Task Force¶HF0860","SL-MOH","Bendu","5","2016-06-22 13:37:17.667661+00:00","41.18%","http://health.gov.sl/","https://data.humdata.org/dataset/sierra-leone-healthsites","null","null","null","null","null","null","null","Community Health Centre","null","null","null","null","null","null","null","null","null","null","null","braids.skillet.importers","SL-MOH","null","null","null","null","null","null","null","null","null",-12.45447097,7.490169629
"0e57033c377a4dbdab032084f0498d6e","The Standby Task Force¶HF1072","SL-MOH","Bendu","5","2016-06-22 13:37:17.667661+00:00","41.18%","http://health.gov.sl/","https://data.humdata.org/dataset/sierra-leone-healthsites","null","null","null","null","null","null","null","Maternal and Child Health Post","null","null","null","null","null","null","null","null","null","null","null","kayaks.countrywide.tribute","SL-MOH","null","null","null","null","null","null","null","null","null",-11.8221099,7.5770065
"179b12f266074bf9bdb86e89ed0f2fdc","The Standby Task Force¶HF1728","MOHS DHIS","Bendu Chp","5","2016-06-22 13:37:17.667661+00:00","47.06%","null","https://data.humdata.org/dataset/sierra-leone-healthsites","null","null","null","null","null","null","null","Community Health Post","null","null","null","null","null","null","null","null","null","null","null","bristle.refiners.undershirts","MOHS DHIS","null","null","null","null","null","null","null","null","null",-10.81744616,8.314905832
"3d858cdf4d8644a6b06c1c9b01f5c50b","OpenStreetMap¶n4504695165","OpenStreetMap","Bendu Health Post","2","2016-11-16 17:37:04+00:00","41.18%","http://www.openstreetmap.org/node/4504695165","null","hospital","null","null","030189986","null","null","null","null","null","null","null","null","null","null","null","null","null","null","null","eatery.groceries.atlases","OpenStreetMap","null","null","null","null","null","null","null","null","null",-10.8202136,8.3121335
"f0ae85769a364031ade1a2c6679a7a37","The Standby Task Force¶HF0478","SL-MOH","Bendugu","5","2016-06-22 13:37:17.667661+00:00","41.18%","http://health.gov.sl/","https://data.humdata.org/dataset/sierra-leone-healthsites","null","null","null","null","null","null","null","Community Health Centre","null","null","null","null","null","null","null","null","null","null","null","weakens.decoded.hermit","SL-MOH","null","null","null","null","null","null","null","null","null",-10.9571209,9.5336071
"7b653ed563434d8fb174dae2accb92f2","The Standby Task Force¶HF0705","SL-MOH","Bendugu","5","2016-06-22 13:37:17.667661+00:00","41.18%","http://health.gov.sl/","https://data.humdata.org/dataset/sierra-leone-healthsites","null","null","null","null","null","null","null","Community Health Centre","null","null","null","null","null","null","null","null","null","null","null","therewith.gothic.tampering","SL-MOH","null","null","null","null","null","null","null","null","null",-11.4891516,9.0620035
"437a724a4c114b2d838fca13aeb03bf5","OpenStreetMap¶n4504696809","OpenStreetMap","Bendugu Clinic","2","2016-12-05 15:28:43+00:00","35.29%","http://www.openstreetmap.org/node/4504696809","null","clinic","null","null","null","null","null","null","null","null","null","null","null","null","null","null","null","null","null","null","henceforth.shipmaster.rudder","OpenStreetMap","null","null","null","null","null","null","null","null","null",-10.9602678,9.5322045
"d00c63bd244f4f7aab6d8e2a312d1d50","The Standby Task Force¶HF0757","SL-MOH","Benduma","5","2016-06-22 13:37:17.667661+00:00","41.18%","http://health.gov.sl/","https://data.humdata.org/dataset/sierra-leone-healthsites","null","null","null","null","null","null","null","Maternal and Child Health Post","null","null","null","null","null","null","null","null","null","null","null","bathrobe.sisterhood.velvety","SL-MOH","null","null","null","null","null","null","null","null","null",-11.5227672,8.0265677
"2ac30db923ea4d308b95a2a4996d8be5","The Standby Task Force¶HF0897","SL-MOH","Benduma","5","2016-06-22 13:37:17.667661+00:00","41.18%","http://health.gov.sl/","https://data.humdata.org/dataset/sierra-leone-healthsites","null","null","null","null","null","null","null","Community Health Centre","null","null","null","null","null","null","null","null","null","null","null","trapping.affliction.bowls","SL-MOH","null","null","null","null","null","null","null","null","null",-11.9628358,7.266287
"44a3c63fc63e4b49938bed3bb337ffad","The Standby Task Force¶HF1080","SL-MOH","Bengani","5","2016-06-22 13:37:17.667661+00:00","41.18%","http://health.gov.sl/","https://data.humdata.org/dataset/sierra-leone-healthsites","null","null","null","null","null","null","null","Maternal and Child Health Post","null","null","null","null","null","null","null","null","null","null","null","horns.cultivating.firework","SL-MOH","null","null","null","null","null","null","null","null","null",-11.9045107,7.1753756
"ad5d787d093f4f16a1b73b0775c96761","The Standby Task Force¶HF1116","SL-MOH","Benguima MI Room","5","2016-06-22 13:37:17.667661+00:00","41.18%","http://health.gov.sl/","https://data.humdata.org/dataset/sierra-leone-healthsites","null","null","null","null","null","null","null","Community Health Post","null","null","null","null","null","null","null","null","null","null","null","allergy.exude.nomads","SL-MOH","null","null","null","null","null","null","null","null","null",-13.072778,8.321389
"484bc217ed6d41fa95eddac087540207","The Standby Task Force¶HF0917","SL-MOH","Benkeh","5","2016-06-22 13:37:17.667661+00:00","41.18%","http://health.gov.sl/","https://data.humdata.org/dataset/sierra-leone-healthsites","null","null","null","null","null","null","null","Maternal and Child Health Post","null","null","null","null","null","null","null","null","null","null","null","double.restrictor.attitudes","SL-MOH","null","null","null","null","null","null","null","null","null",-12.5358039,7.828519
"9e2ad31c8e3a455e8c56b2bcf57c1b34","The Standby Task Force¶HF0593","SL-MOH","Benkia","5","2016-06-22 13:37:17.667661+00:00","41.18%","http://health.gov.sl/","https://data.humdata.org/dataset/sierra-leone-healthsites","null","null","null","null","null","null","null","Maternal and Child Health Post","null","null","null","null","null","null","null","null","null","null","null","substitute.hags.unknowns","SL-MOH","null","null","null","null","null","null","null","null","null",-12.6925931,8.5457312
"2fa609dc1f134176abe1791bd807ea13","openstreetmap¶w309034740","OpenStreetMap","Bible College Treatment Centre","2","2015-12-11 10:51:22.924404+00:00","35.29%","http://www.openstreetmap.org/way/309034740","null","clinic","null","null","null","null","null","null","null","null","null","null","null","null","null","null","null","null","null","null","stunning.prude.trendy","OpenStreetMap","null","null","null","null","null","null","null","null","null",-13.134324700817,8.40665065
"87adc4f4765146ecacd043f17b671523","OpenStreetMap¶n4504695175","OpenStreetMap","Bindi CHP","2","2016-11-16 17:37:06+00:00","41.18%","http://www.openstreetmap.org/node/4504695175","null","hospital","null","null","076580405","null","null","null","null","null","null","null","null","null","null","null","null","null","null","null","darwinism.ingratitude.distribution","OpenStreetMap","null","null","null","null","null","null","null","null","null",-11.44328,9.9111928
"dd81602cd539471b87e0330ce2c7c578","The Standby Task Force¶HF0295","SL-MOH","Binkolo","5","2016-06-22 13:37:17.667661+00:00","41.18%","http://health.gov.sl/","https://data.humdata.org/dataset/sierra-leone-healthsites","null","null","null","null","null","null","null","Community Health Centre","null","null","null","null","null","null","null","null","null","null","null","delta.geared.dedications","SL-MOH","null","null","null","null","null","null","null","null","null",-11.9779353,8.9533154
"d1909de26ac1429996c73249a553cb3d","openstreetmap¶n3371553300","OpenStreetMap","Biola Wright Memorial Hospital","2","2015-11-17 09:43:57.838516+00:00","35.29%","http://www.openstreetmap.org/node/3371553300","null","hospital","null","null","null","null","null","null","null","null","null","null","null","null","null","null","null","null","null","null","unresolved.lounging.inhaler","OpenStreetMap","null","null","null","null","null","null","null","null","null",-13.0958875,8.364676
"a079dac31b1f466d98eef92adba2a31d","The Standby Task Force¶HF0115","SL-MOH","Blama","5","2016-06-22 13:37:17.667661+00:00","41.18%","http://health.gov.sl/","https://data.humdata.org/dataset/sierra-leone-healthsites","null","null","null","null","null","null","null","Community Health Centre","null","null","null","null","null","null","null","null","null","null","null","voicemail.besieged.swarming","SL-MOH","null","null","null","null","null","null","null","null","null",-11.3898372,8.225342
"c0f20f42f73d476ea64812d0469493bb","The Standby Task Force¶HF1234","ASSL","Blama Community Health Centre","5","2016-06-22 13:37:17.667661+00:00","35.29%","null","https://data.humdata.org/dataset/sierra-leone-healthsites","null","null","null","null","null","null","null","null","null","null","null","null","null","null","null","null","null","null","null","outstrips.locating.colossal","ASSL","null","null","null","null","null","null","null","null","null",-11.3448069,7.8741655
"53c4e6be0a454cf597cb827676e56793","The Standby Task Force¶HF1029","SL-MOH","Blama Massaquoi","5","2016-06-22 13:37:17.667661+00:00","41.18%","http://health.gov.sl/","https://data.humdata.org/dataset/sierra-leone-healthsites","null","null","null","null","null","null","null","Community Health Centre","null","null","null","null","null","null","null","null","null","null","null","yearns.chipping.scant","SL-MOH","null","null","null","null","null","null","null","null","null",-11.6353868,7.3454559
"daf098e9bc0c4688aa98e11b0ef256ce","The Standby Task Force¶HF1030","SL-MOH","Blama Peri","5","2016-06-22 13:37:17.667661+00:00","41.18%","http://health.gov.sl/","https://data.humdata.org/dataset/sierra-leone-healthsites","null","null","null","null","null","null","null","Maternal and Child Health Post","null","null","null","null","null","null","null","null","null","null","null","sills.purposeless.simmering","SL-MOH","null","null","null","null","null","null","null","null","null",-11.5913577,7.1234428
"c28a714f8c8d4453b2c58775f591b817","The Standby Task Force¶HF0762","SL-MOH","Blamawo","5","2016-06-22 13:37:17.667661+00:00","41.18%","http://health.gov.sl/","https://data.humdata.org/dataset/sierra-leone-healthsites","null","null","null","null","null","null","null","Maternal and Child Health Post","null","null","null","null","null","null","null","null","null","null","null","cajoles.entered.sisterhood","SL-MOH","null","null","null","null","null","null","null","null","null",-11.5222801,7.950855081
"176dff246c5241dea393dd52009ed10c","The Standby Task Force¶HF1172","SL-MOH","Blessed Mokaba East","5","2016-06-22 13:37:17.667661+00:00","41.18%","http://health.gov.sl/","https://data.humdata.org/dataset/sierra-leone-healthsites","null","null","null","null","null","null","null","Clinic","null","null","null","null","null","null","null","null","null","null","null","blend.dazzling.aged","SL-MOH","null","null","null","null","null","null","null","null","null",-13.1608,8.4373
"ef0f119b4c194938ad028be17cf13e35","openstreetmap¶n403791212","OpenStreetMap","Blue Shield Hospital","2","2015-11-17 09:43:57.838516+00:00","35.29%","http://www.openstreetmap.org/node/403791212","null","hospital","null","null","null","null","null","null","null","null","null","null","null","null","null","null","null","null","null","null","travels.unscrew.special","OpenStreetMap","null","null","null","null","null","null","null","null","null",-13.246672,8.4842083
"5a613160143e4d2788f122cf088dc713","The Standby Task Force¶HF1314","US Embassy Sierra Leone","Blue Shield Medical Services Hospital","5","2016-06-22 13:37:17.667661+00:00","41.18%","null","https://data.humdata.org/dataset/sierra-leone-healthsites","null","null","null","null","null","null","null","null","null","null","null","null","null","null","null","null","null","null","null","sectors.pans.sulk","US Embassy Sierra Leone","null","null","null","null","null","null","null","null","null",-13.249064,8.485004
"d0430d77413f4c21b8e1b4774a3232d7","The Standby Task Force¶HF1596","MOHS DHIS","Blueshield","5","2016-06-22 13:37:17.667661+00:00","47.06%","null","https://data.humdata.org/dataset/sierra-leone-healthsites","null","null","null","null","null","null","null","Private Hospital","null","null","null","null","null","null","null","null","null","null","null","hampers.jiggle.action","MOHS DHIS","null","null","null","null","null","null","null","null","null",-13.23784104,8.473988599
"d0a7463c55604a03bd8789f3cb864eb7","OpenStreetMap¶n4540108175","OpenStreetMap","Bo","2","2016-12-05 19:20:42+00:00","35.29%","http://www.openstreetmap.org/node/4540108175","null","hospital","null","null","null","null","null","null","null","null","null","null","null","null","null","null","null","null","null","null","leotard.units.jetted","OpenStreetMap","null","null","null","null","null","null","null","null","null",-13.2373667,8.4882684
"3bd53f57bc8648608e79711747bd9050","The Standby Task Force¶HF1284","Bo Children Hospital (org)","Bo  Children's Hospital","5","2016-06-22 13:37:17.667661+00:00","47.06%","null","https://data.humdata.org/dataset/sierra-leone-healthsites","null","null","null","null","null","null","null","Pediatrics","null","null","null","null","null","null","null","null","null","null","null","career.during.royally","Bo Children Hospital (org)","null","null","null","null","null","null","null","null","null",-11.7649,7.9881
"d72d30d7b48644419ccc3ae325f04f32","openstreetmap¶n3197529880","OpenStreetMap","Bo CMC","2","2015-11-17 09:43:57.838516+00:00","35.29%","http://www.openstreetmap.org/node/3197529880","null","hospital","null","null","null","null","null","null","null","null","null","null","null","null","null","null","null","null","null","null","plastics.princes.conformist","OpenStreetMap","null","null","null","null","null","null","null","null","null",-11.67,7.941
"b5a9182980b24cf986d45fd6a4083bea","openstreetmap¶n3589607736","OpenStreetMap","Bo Children's Hospital","2","2015-11-17 09:43:57.838516+00:00","35.29%","http://www.openstreetmap.org/node/3589607736","null","hospital","null","null","null","null","null","null","null","null","null","null","null","null","null","null","null","null","null","null","original.javelin.saucepan","OpenStreetMap","null","null","null","null","null","null","null","null","null",-11.7648075,7.9879385
"d1e80147dcc6438f921cbfb1a3f1d3f0","The Standby Task Force¶HF1278","International SOS","Bo Ebola Treatment Unit","5","2016-06-22 13:37:17.667661+00:00","47.06%","null","https://data.humdata.org/dataset/sierra-leone-healthsites","null","null","null","null","null","null","null","ETC","null","null","null","null","null","null","null","null","null","null","null","widened.gusto.enlist","International SOS","null","null","null","null","null","null","null","null","null",-11.67055556,7.94
"f807aa8e9e4c4a9d8dbfc2d448d58d2a","openstreetmap¶n3589607743","OpenStreetMap","Bo Government Hospital","2","2015-11-17 09:43:57.838516+00:00","35.29%","http://www.openstreetmap.org/node/3589607743","null","hospital","null","null","null","null","null","null","null","null","null","null","null","null","null","null","null","null","null","null","embedded.irresolute.swelling","OpenStreetMap","null","null","null","null","null","null","null","null","null",-11.7422227,8.0181683
"3c0c757f98ac499fbd5743cdcb0c2fcd","The Standby Task Force¶HF1283","International SOS","Bo Government Hospital","5","2016-06-22 13:37:17.667661+00:00","47.06%","null","https://data.humdata.org/dataset/sierra-leone-healthsites","null","null","null","null","null","null","null","General Surgery,Maternity ward,dental department,Pediatrics,Outpatient care","null","null","null","null","null","null","null","null","null","null","null","competent.zapped.snipped","International SOS","null","null","null","null","null","null","null","null","null",-11.74277778,7.964444444
"b451e10040054c94ab65955cf89b86df","openstreetmap¶n1795616947","OpenStreetMap","Bo Government Hospital","2","2015-11-17 09:43:57.838516+00:00","35.29%","http://www.openstreetmap.org/node/1795616947","null","hospital","null","null","null","null","null","null","null","null","null","null","null","null","null","null","null","null","null","null","moats.giggle.bumping","OpenStreetMap","null","null","null","null","null","null","null","null","null",-11.7422706,7.9640911
"d3f135435295427cb1595ca6ef0359b2","The Standby Task Force¶HF1493","Yellow Pages, Cybo","Bo Mercy Hospital","5","2016-06-22 13:37:17.667661+00:00","47.06%","null","https://data.humdata.org/dataset/sierra-leone-healthsites","null","null","null","null","null","null","null","Laboratory","null","null","null","null","null","null","null","null","null","null","null","toward.contour.contain","Yellow Pages, Cybo","null","null","null","null","null","null","null","null","null",-11.73727778,7.976666667
"98a066b41db64c328e0b018523943d50","The Standby Task Force¶HF0110","SL-MOH","Boajibu","5","2016-06-22 13:37:17.667661+00:00","41.18%","http://health.gov.sl/","https://data.humdata.org/dataset/sierra-leone-healthsites","null","null","null","null","null","null","null","Community Health Centre","null","null","null","null","null","null","null","null","null","null","null","implication.snowmobile.peppercorn","SL-MOH","null","null","null","null","null","null","null","null","null",-11.3400471,8.1911654
"1a6dd170b3d445d4ba201c712ef6d038","The Standby Task Force¶HF0873","SL-MOH","Boama","5","2016-06-22 13:37:17.667661+00:00","41.18%","http://health.gov.sl/","https://data.humdata.org/dataset/sierra-leone-healthsites","null","null","null","null","null","null","null","Community Health Centre","null","null","null","null","null","null","null","null","null","null","null","pant.dunce.month","SL-MOH","null","null","null","null","null","null","null","null","null",-12.8867348,7.6104907
"9553e82b3b4240688833816ca709ae06","OpenStreetMap¶n4504648655","OpenStreetMap","Boama Clinic","2","2016-11-16 16:48:28+00:00","35.29%","http://www.openstreetmap.org/node/4504648655","null","clinic","null","null","null","null","null","null","null","null","null","null","null","null","null","null","null","null","null","null","films.undeniably.alone","OpenStreetMap","null","null","null","null","null","null","null","null","null",-10.6556332,8.274041
"9087ed8194fb4fe7b89bb9ac958b2b99","OpenStreetMap¶n4504695158","OpenStreetMap","Boama Health Post","2","2016-11-16 17:37:02+00:00","41.18%","http://www.openstreetmap.org/node/4504695158","null","hospital","null","null","078471505","null","null","null","null","null","null","null","null","null","null","null","null","null","null","null","infestation.aces.misbehaves","OpenStreetMap","null","null","null","null","null","null","null","null","null",-10.7859135,8.4248712
"62be1961071f45488dca13f439477742","The Standby Task Force¶HF1723","MOHS DHIS","Bomaru Chp","5","2016-06-22 13:37:17.667661+00:00","47.06%","null","https://data.humdata.org/dataset/sierra-leone-healthsites","null","null","null","null","null","null","null","Community Health Post","null","null","null","null","null","null","null","null","null","null","null","scrubbed.tally.prospective","MOHS DHIS","null","null","null","null","null","null","null","null","null",-10.6264545,7.980241492
"6dc4555d5b924fcc9e7cdec747fad33f","The Standby Task Force¶HF1662","MOHS DHIS","Bombomhun Mchp","5","2016-06-22 13:37:17.667661+00:00","47.06%","null","https://data.humdata.org/dataset/sierra-leone-healthsites","null","null","null","null","null","null","null","Maternal and Child Health Post","null","null","null","null","null","null","null","null","null","null","null","winning.subversive.rely","MOHS DHIS","null","null","null","null","null","null","null","null","null",-10.83734245,7.960345804
"b5a0c5a9b2454c25be1774552724b337","The Standby Task Force¶HF0123","SL-MOH","Bombordu Fiama","5","2016-06-22 13:37:17.667661+00:00","41.18%","http://health.gov.sl/","https://data.humdata.org/dataset/sierra-leone-healthsites","null","null","null","null","null","null","null","Maternal and Child Health Post","null","null","null","null","null","null","null","null","null","null","null","collided.disallowed.monetarily","SL-MOH","null","null","null","null","null","null","null","null","null",-10.8605178,8.621978
"8f7c30a45a6f4b2389d09930fe939acb","The Standby Task Force¶HF1031","SL-MOH","Bomi","5","2016-06-22 13:37:17.667661+00:00","41.18%","http://health.gov.sl/","https://data.humdata.org/dataset/sierra-leone-healthsites","null","null","null","null","null","null","null","Maternal and Child Health Post","null","null","null","null","null","null","null","null","null","null","null","illumination.husky.impersonates","SL-MOH","null","null","null","null","null","null","null","null","null",-11.5271403,7.2458008
"37656d696d25402e82cb9c36167b3da8","The Standby Task Force¶HF0050","SL-MOH","Bomie","5","2016-06-22 13:37:17.667661+00:00","41.18%","http://health.gov.sl/","https://data.humdata.org/dataset/sierra-leone-healthsites","null","null","null","null","null","null","null","Maternal and Child Health Post","null","null","null","null","null","null","null","null","null","null","null","ulcer.worth.mouthfuls","SL-MOH","null","null","null","null","null","null","null","null","null",-11.04646759,8.232651771
"7dba42e94001478b88c56f57c4d63274","The Standby Task Force¶HF1008","SL-MOH","Bomotoke","5","2016-06-22 13:37:17.667661+00:00","41.18%","http://health.gov.sl/","https://data.humdata.org/dataset/sierra-leone-healthsites","null","null","null","null","null","null","null","Community Health Centre","null","null","null","null","null","null","null","null","null","null","null","redemptions.vamp.dole","SL-MOH","null","null","null","null","null","null","null","null","null",-12.6558998,7.8172729
"c13c3d1ece8143d3842c03cf28250a7e","The Standby Task Force¶HF1048","SL-MOH","Bomu","5","2016-06-22 13:37:17.667661+00:00","41.18%","http://health.gov.sl/","https://data.humdata.org/dataset/sierra-leone-healthsites","null","null","null","null","null","null","null","Maternal and Child Health Post","null","null","null","null","null","null","null","null","null","null","null","sakes.grooming.cranes","SL-MOH","null","null","null","null","null","null","null","null","null",-11.6215626,7.4627985
"9b6463b34c864d339a4143b0bc2d8730","The Standby Task Force¶HF1086","SL-MOH","Bongay","5","2016-06-22 13:37:17.667661+00:00","41.18%","http://health.gov.sl/","https://data.humdata.org/dataset/sierra-leone-healthsites","null","null","null","null","null","null","null","Community Health Post","null","null","null","null","null","null","null","null","null","null","null","loomed.pyrotechnic.hikers","SL-MOH","null","null","null","null","null","null","null","null","null",-11.5187763,7.5247665
"fd9ff3834ccd4776945b1e812d72f2cd","The Standby Task Force¶HF0044","SL-MOH","Bongor","5","2016-06-22 13:37:17.667661+00:00","41.18%","http://health.gov.sl/","https://data.humdata.org/dataset/sierra-leone-healthsites","null","null","null","null","null","null","null","Maternal and Child Health Post","null","null","null","null","null","null","null","null","null","null","null","adjustments.switchboards.observatory","SL-MOH","null","null","null","null","null","null","null","null","null",-11.28977852,7.610932081
"344f77c9109e4a61b27a4f0e2196a855","The Standby Task Force¶HF0720","SL-MOH","Bonkababay","5","2016-06-22 13:37:17.667661+00:00","41.18%","http://health.gov.sl/","https://data.humdata.org/dataset/sierra-leone-healthsites","null","null","null","null","null","null","null","Maternal and Child Health Post","null","null","null","null","null","null","null","null","null","null","null","concealing.despairing.fencer","SL-MOH","null","null","null","null","null","null","null","null","null",-12.2119949,8.3543462
"f1eed6244a09499195123b7836ad49cf","The Standby Task Force¶HF1635","MOHS DHIS","Bonthe Government Hospital","5","2016-06-22 13:37:17.667661+00:00","47.06%","null","https://data.humdata.org/dataset/sierra-leone-healthsites","null","null","null","null","null","null","null","Govt Hospital","null","null","null","null","null","null","null","null","null","null","null","ream.slightest.exterior","MOHS DHIS","null","null","null","null","null","null","null","null","null",-12.50659973,7.53002468
"16047fa05f1b4558b6cc21629daec7d8","The Standby Task Force¶HF0827","SL-MOH","Bontiwo","5","2016-06-22 13:37:17.667661+00:00","41.18%","http://health.gov.sl/","https://data.humdata.org/dataset/sierra-leone-healthsites","null","null","null","null","null","null","null","Maternal and Child Health Post","null","null","null","null","null","null","null","null","null","null","null","dots.ludicrously.overhyped","SL-MOH","null","null","null","null","null","null","null","null","null",-11.8143122,7.6810885
"5fec71b8507d4ab7bdc664ae1bca65bc","The Standby Task Force¶HF1123","SL-MOH","Borah Maternity","5","2016-06-22 13:37:17.667661+00:00","41.18%","http://health.gov.sl/","https://data.humdata.org/dataset/sierra-leone-healthsites","null","null","null","null","null","null","null","Clinic","null","null","null","null","null","null","null","null","null","null","null","remembering.porches.sizes","SL-MOH","null","null","null","null","null","null","null","null","null",-13.0962481,8.3702177
"5f14ec03bffe44f184ecb57e999d0ace","The Standby Task Force¶HF1110","SL-MOH","Borma","5","2016-06-22 13:37:17.667661+00:00","41.18%","http://health.gov.sl/","https://data.humdata.org/dataset/sierra-leone-healthsites","null","null","null","null","null","null","null","Maternal and Child Health Post","null","null","null","null","null","null","null","null","null","null","null","warm.spritzer.doorpost","SL-MOH","null","null","null","null","null","null","null","null","null",-11.75772734,7.172602348
"382e41a9c9f848f2b576c54c41c533a3","The Standby Task Force¶HF0135","SL-MOH","Boroma","5","2016-06-22 13:37:17.667661+00:00","41.18%","http://health.gov.sl/","https://data.humdata.org/dataset/sierra-leone-healthsites","null","null","null","null","null","null","null","Maternal and Child Health Post","null","null","null","null","null","null","null","null","null","null","null","striking.inserted.shameful","SL-MOH","null","null","null","null","null","null","null","null","null",-10.9450165,8.66631
"ac226bf58c344f288d4ea6f269a3aeb7","The Standby Task Force¶HF0234","SL-MOH","Borongoh/Makarankay","5","2016-06-22 13:37:17.667661+00:00","41.18%","http://health.gov.sl/","https://data.humdata.org/dataset/sierra-leone-healthsites","null","null","null","null","null","null","null","Maternal and Child Health Post","null","null","null","null","null","null","null","null","null","null","null","cabins.mismatch.intellectually","SL-MOH","null","null","null","null","null","null","null","null","null",-12.37423125,9.2496746
"f0918fd3e0e2456193e111952f1b3121","The Standby Task Force¶HF0999","SL-MOH","Bradford","5","2016-06-22 13:37:17.667661+00:00","41.18%","http://health.gov.sl/","https://data.humdata.org/dataset/sierra-leone-healthsites","null","null","null","null","null","null","null","Community Health Centre","null","null","null","null","null","null","null","null","null","null","null","peachy.postpone.admirer","SL-MOH","null","null","null","null","null","null","null","null","null",-12.7461854,8.2954312
"6fc80239c0d24bc3b7b61c24e5b99256","The Standby Task Force¶HF0801","SL-MOH","Brima Town","5","2016-06-22 13:37:17.667661+00:00","41.18%","http://health.gov.sl/","https://data.humdata.org/dataset/sierra-leone-healthsites","null","null","null","null","null","null","null","Community Health Post","null","null","null","null","null","null","null","null","null","null","null","drums.retail.uniform","SL-MOH","null","null","null","null","null","null","null","null","null",-11.756,7.9636
"86b7fcef5e4c489c9093628ef53d7945","The Standby Task Force¶HF1316","Info Sierra Leone","Brookfields Community Hospital and Health Care","5","2016-06-22 13:37:17.667661+00:00","41.18%","null","https://data.humdata.org/dataset/sierra-leone-healthsites","null","null","null","null","null","null","null","null","null","null","null","null","null","null","null","null","null","null","null","words.sifts.device","Info Sierra Leone","null","null","null","null","null","null","null","null","null",-13.247767,8.472324
"6e201164feef4de39b2a402a468d7a02","The Standby Task Force¶HF0415","SL-MOH","Bubuya","5","2016-06-22 13:37:17.667661+00:00","41.18%","http://health.gov.sl/","https://data.humdata.org/dataset/sierra-leone-healthsites","null","null","null","null","null","null","null","Maternal and Child Health Post","null","null","null","null","null","null","null","null","null","null","null","pancakes.shook.colossal","SL-MOH","null","null","null","null","null","null","null","null","null",-12.67030521,9.289236491
"e39d96c66cff4c9c94201d8e5d0e226f","openstreetmap¶n1795616949","OpenStreetMap","Bucksal Health Post","2","2015-11-17 09:43:57.838516+00:00","35.29%","http://www.openstreetmap.org/node/1795616949","null","hospital","null","null","null","null","null","null","null","null","null","null","null","null","null","null","null","null","null","null","raft.rapport.lace","OpenStreetMap","null","null","null","null","null","null","null","null","null",-11.7258114,7.9402547
"1df461cce5e442d9984ae429d749d3c3","The Standby Task Force¶HF1632","MOHS DHIS","Bucksal Primary Health Unit","5","2016-06-22 13:37:17.667661+00:00","47.06%","null","https://data.humdata.org/dataset/sierra-leone-healthsites","null","null","null","null","null","null","null","Maternal and Child Health Post","null","null","null","null","null","null","null","null","null","null","null","connects.eyelash.shape","MOHS DHIS","null","null","null","null","null","null","null","null","null",-11.72585046,7.941102242
"758217daaec64846b9ac3daee256f52f","The Standby Task Force¶HF1227","International SOS","Buedu","5","2016-06-22 13:37:17.667661+00:00","41.18%","null","https://data.humdata.org/dataset/sierra-leone-healthsites","null","null","null","null","null","null","null","Triage","null","null","null","null","null","null","null","null","null","null","null","frequenting.disallow.flies","International SOS","null","null","null","null","null","null","null","null","null",-10.372805,8.2808305
"b8014260186c436490e78e07db7dfffc","The Standby Task Force¶HF1678","MOHS DHIS","Buedu Chc","5","2016-06-22 13:37:17.667661+00:00","47.06%","null","https://data.humdata.org/dataset/sierra-leone-healthsites","null","null","null","null","null","null","null","Community Health Centre","null","null","null","null","null","null","null","null","null","null","null","smiles.broadcasts.ornamental","MOHS DHIS","null","null","null","null","null","null","null","null","null",-10.37242186,8.276603773
"7f5c9c9d012d4413a50fbcc93f6e4f59","The Standby Task Force¶HF0748","SL-MOH","Bum Kaku","5","2016-06-22 13:37:17.667661+00:00","41.18%","http://health.gov.sl/","https://data.humdata.org/dataset/sierra-leone-healthsites","null","null","null","null","null","null","null","Maternal and Child Health Post","null","null","null","null","null","null","null","null","null","null","null","votes.pirouetted.walks","SL-MOH","null","null","null","null","null","null","null","null","null",-11.87751187,7.506195412
"31b50924b68a4af68c4ccc0564d81ffe","The Standby Task Force¶HF0774","SL-MOH","Buma","5","2016-06-22 13:37:17.667661+00:00","41.18%","http://health.gov.sl/","https://data.humdata.org/dataset/sierra-leone-healthsites","null","null","null","null","null","null","null","Maternal and Child Health Post","null","null","null","null","null","null","null","null","null","null","null","tenacity.refused.griddle","SL-MOH","null","null","null","null","null","null","null","null","null",-11.9722508,7.7390446
"977ae961702a485e8492748cdc6ed5fd","The Standby Task Force¶HF0207","SL-MOH","Bumban","5","2016-06-22 13:37:17.667661+00:00","41.18%","http://health.gov.sl/","https://data.humdata.org/dataset/sierra-leone-healthsites","null","null","null","null","null","null","null","Maternal and Child Health Post","null","null","null","null","null","null","null","null","null","null","null","resonated.collectively.kilowatts","SL-MOH","null","null","null","null","null","null","null","null","null",-11.9080846,9.1231496
"3cce9db636c24b02bbffd8fb8dedf005","The Standby Task Force¶HF0208","SL-MOH","Bumbandain","5","2016-06-22 13:37:17.667661+00:00","41.18%","http://health.gov.sl/","https://data.humdata.org/dataset/sierra-leone-healthsites","null","null","null","null","null","null","null","Maternal and Child Health Post","null","null","null","null","null","null","null","null","null","null","null","resonated.collectively.kilowatts","SL-MOH","null","null","null","null","null","null","null","null","null",-11.9080846,9.1231496
"b6617168b80c40b98d825e81a1cbd3ea","The Standby Task Force¶HF1087","SL-MOH","Bumbeh","5","2016-06-22 13:37:17.667661+00:00","41.18%","http://health.gov.sl/","https://data.humdata.org/dataset/sierra-leone-healthsites","null","null","null","null","null","null","null","Maternal and Child Health Post","null","null","null","null","null","null","null","null","null","null","null","strides.garlic.cosmologies","SL-MOH","null","null","null","null","null","null","null","null","null",-11.5637202,7.2837823
"c1b5d5f081f54f5eb075579748981db4","The Standby Task Force¶HF0488","SL-MOH","Bumbukoro","5","2016-06-22 13:37:17.667661+00:00","41.18%","http://health.gov.sl/","https://data.humdata.org/dataset/sierra-leone-healthsites","null","null","null","null","null","null","null","Maternal and Child Health Post","null","null","null","null","null","null","null","null","null","null","null","reviewer.preservative.chaos","SL-MOH","null","null","null","null","null","null","null","null","null",-10.9888368,9.2923333
"75307843c8634ede9afd134959eed7ec","The Standby Task Force¶HF0257","SL-MOH","Bumbuna","5","2016-06-22 13:37:17.667661+00:00","41.18%","http://health.gov.sl/","https://data.humdata.org/dataset/sierra-leone-healthsites","null","null","null","null","null","null","null","Community Health Centre","null","null","null","null","null","null","null","null","null","null","null","predisposes.undeclared.strained","SL-MOH","null","null","null","null","null","null","null","null","null",-11.7465822,9.0432105
"44a98c806e62474786fa74179b588a16","The Standby Task Force¶HF0661","SL-MOH","Bumbuna","5","2016-06-22 13:37:17.667661+00:00","41.18%","http://health.gov.sl/","https://data.humdata.org/dataset/sierra-leone-healthsites","null","null","null","null","null","null","null","Community Health Centre","null","null","null","null","null","null","null","null","null","null","null","predisposes.undeclared.strained","SL-MOH","null","null","null","null","null","null","null","null","null",-11.7465822,9.0432105
"c03c3cbb2d4c411cba55a1e96491655a","The Standby Task Force¶HF0775","SL-MOH","Bumpe","5","2016-06-22 13:37:17.667661+00:00","41.18%","http://health.gov.sl/","https://data.humdata.org/dataset/sierra-leone-healthsites","null","null","null","null","null","null","null","Community Health Centre","null","null","null","null","null","null","null","null","null","null","null","grooms.bubbling.swallow","SL-MOH","null","null","null","null","null","null","null","null","null",-11.9045359,7.8913532
"55c706049a884049ba978265ee8a1e42","The Standby Task Force¶HF1032","SL-MOH","Bumpeh","5","2016-06-22 13:37:17.667661+00:00","41.18%","http://health.gov.sl/","https://data.humdata.org/dataset/sierra-leone-healthsites","null","null","null","null","null","null","null","Community Health Centre","null","null","null","null","null","null","null","null","null","null","null","strides.garlic.cosmologies","SL-MOH","null","null","null","null","null","null","null","null","null",-11.5637202,7.2837823
"af914a0743154e1e839f10be06385055","The Standby Task Force¶HF0162","SL-MOH","Bumpeh","5","2016-06-22 13:37:17.667661+00:00","41.18%","http://health.gov.sl/","https://data.humdata.org/dataset/sierra-leone-healthsites","null","null","null","null","null","null","null","Community Health Post","null","null","null","null","null","null","null","null","null","null","null","blank.franchises.ultimate","SL-MOH","null","null","null","null","null","null","null","null","null",-11.0761096,8.6144188
"366be806d7304f9ea8ac871d106453ad","The Standby Task Force¶HF1693","MOHS DHIS","Bumpeh Chp","5","2016-06-22 13:37:17.667661+00:00","47.06%","null","https://data.humdata.org/dataset/sierra-leone-healthsites","null","null","null","null","null","null","null","Community Health Post","null","null","null","null","null","null","null","null","null","null","null","unwitting.vies.backdating","MOHS DHIS","null","null","null","null","null","null","null","null","null",-10.81332699,7.778769073
"8b635e59ef724ca7ab583fac9a2db6fd","The Standby Task Force¶HF1300","ASSL","Bumpeh Perri Community Health Centre","5","2016-06-22 13:37:17.667661+00:00","35.29%","null","https://data.humdata.org/dataset/sierra-leone-healthsites","null","null","null","null","null","null","null","null","null","null","null","null","null","null","null","null","null","null","null","playfully.irrelevancy.investigation","ASSL","null","null","null","null","null","null","null","null","null",-11.563979,7.283638
"add38ce2b6164250b3361942eac660eb","The Standby Task Force¶HF0925","SL-MOH","Bumpeh River","5","2016-06-22 13:37:17.667661+00:00","41.18%","http://health.gov.sl/","https://data.humdata.org/dataset/sierra-leone-healthsites","null","null","null","null","null","null","null","Community Health Post","null","null","null","null","null","null","null","null","null","null","null","decode.neurology.fixation","SL-MOH","null","null","null","null","null","null","null","null","null",-12.7119341,8.1407644
"0db68ce412dd41448b58324bd9b57d9b","The Standby Task Force¶HF0962","SL-MOH","Bumpetoke","5","2016-06-22 13:37:17.667661+00:00","41.18%","http://health.gov.sl/","https://data.humdata.org/dataset/sierra-leone-healthsites","null","null","null","null","null","null","null","Community Health Post","null","null","null","null","null","null","null","null","null","null","null","robotics.flannel.triumph","SL-MOH","null","null","null","null","null","null","null","null","null",-12.8455764,7.8125406
"c79f7f2d4bc64051af865d46574d575a","The Standby Task Force¶HF0144","SL-MOH","Bunabu","5","2016-06-22 13:37:17.667661+00:00","41.18%","http://health.gov.sl/","https://data.humdata.org/dataset/sierra-leone-healthsites","null","null","null","null","null","null","null","Maternal and Child Health Post","null","null","null","null","null","null","null","null","null","null","null","mediators.breadsticks.objecting","SL-MOH","null","null","null","null","null","null","null","null","null",-11.1579068,8.4219706
"4a1e83b5f53a40aaad4f5c02197aa5ed","OpenStreetMap¶n4504695161","OpenStreetMap","Bunbu Sankohc","2","2016-11-16 18:25:09+00:00","41.18%","http://www.openstreetmap.org/node/4504695161","null","clinic","null","null","077151226","null","null","null","null","null","null","null","null","null","null","null","null","null","null","null","baboon.darts.seasonality","OpenStreetMap","null","null","null","null","null","null","null","null","null",-13.0750513,9.005144
"a0fcb6b943204937bf1768ae72525097","The Standby Task Force¶HF0594","SL-MOH","Bundulai","5","2016-06-22 13:37:17.667661+00:00","41.18%","http://health.gov.sl/","https://data.humdata.org/dataset/sierra-leone-healthsites","null","null","null","null","null","null","null","Maternal and Child Health Post","null","null","null","null","null","null","null","null","null","null","null","domestics.dressy.discourage","SL-MOH","null","null","null","null","null","null","null","null","null",-12.9068101,8.7643107
"5009a5a4aab34a549619a2fee7a8a290","The Standby Task Force¶HF1716","MOHS DHIS","Bunumbu Chc","5","2016-06-22 13:37:17.667661+00:00","47.06%","null","https://data.humdata.org/dataset/sierra-leone-healthsites","null","null","null","null","null","null","null","Community Health Centre","null","null","null","null","null","null","null","null","null","null","null","misjudged.tenders.crawlers","MOHS DHIS","null","null","null","null","null","null","null","null","null",-10.8522995,8.166131726
"d57d3beb829e4759abb0436bfc0a9781","The Standby Task Force¶HF0540","SL-MOH","Bureh","5","2016-06-22 13:37:17.667661+00:00","41.18%","http://health.gov.sl/","https://data.humdata.org/dataset/sierra-leone-healthsites","null","null","null","null","null","null","null","Maternal and Child Health Post","null","null","null","null","null","null","null","null","null","null","null","eastward.secluded.seasick","SL-MOH","null","null","null","null","null","null","null","null","null",-12.7337708,8.6828356
"15932c7262fe448face20fd715a3ba50","The Standby Task Force¶HF0078","SL-MOH","Burma 2","5","2016-06-22 13:37:17.667661+00:00","41.18%","http://health.gov.sl/","https://data.humdata.org/dataset/sierra-leone-healthsites","null","null","null","null","null","null","null","Maternal and Child Health Post","null","null","null","null","null","null","null","null","null","null","null","rats.crunchy.physics","SL-MOH","null","null","null","null","null","null","null","null","null",-11.17645413,7.891155337
"6fc9f49171be4e2a9c141b7c6ccc6ec7","The Standby Task Force¶HF1421","Yellow Pages, Cybo","C. A. J. Pharmaceutical","5","2016-06-22 13:37:17.667661+00:00","47.06%","null","https://data.humdata.org/dataset/sierra-leone-healthsites","null","null","null","null","null","null","null","pharmacy","null","null","null","null","null","null","null","null","null","null","null","richly.caskets.vines","Yellow Pages, Cybo","null","null","null","null","null","null","null","null","null",-13.228952,8.487583
