@id,@lon,@lat,name,osm_id,denomination,opening_hours,addr:postcode,no,isced:field,source,building:material,x_coord,operator,name:en,note,addr:state,phone,addr:street,amenity,email,building,religion,tourism,addr:city,drinking_water,address,addr:housenumber,office,building:condition,place,categories,shop,man_made,fixme,capacity,description,y_coord,unocha:pcode,fee,type
1988184292,-12.8283606,8.1201624,Vine Memorial Baptist School,,,,,,,2012 NEC Polling Centers,,,,,,,,,school,,,,,,,,,,,,,,,,,,,,,
2247907467,-13.1633317,8.1751477,Kent Slave House (today used as school),,,,,,,,,,,,,,,,school,,yes,,museum,,,,,,,locality,,,,,,,,SLE04010400028,,
2818709642,-12.2444495,9.4932629,,,,,,,,,,,,,,,,,school,,,,,,,,,,,,,,,,,,,,,
2818709644,-12.2278269,9.6777594,,,,,,,,,,,,,,,,,school,,,,,,,,,,,,,,,,,,,,,
2988851083,-11.5759713,7.8894401,,,,,,,,,,,,,,,,,school,,,,,,,,,,,,,,,,,,,,,
2988895378,-11.5450498,7.9040987,,,,,,,,,,,,,,,,,school,,,,,,,,,,,,,,,,,,,,,
2988895790,-11.5398942,7.8881332,,,,,,,,,,,,,,,,,school,,,,,,,,,,,,,,,,,,,,,
3028480080,-13.0039602,8.3363000,,,,,,,,,,,,,,,,,school,,,,,,,,,,,,,,,to be verified,,,,,,
3121249519,-11.9708583,9.0302380,,,,,,,,Bing,,,,,,,,,school,,,,,,,,,,,,,,,,,,,,,
3137243769,-12.9429673,8.5083523,,,,,,,,,,,,,,,,,school,,,,,,,,,,,,,,,,,,,,,
3339830616,-13.1464958,8.4079434,BABOON COLLEGE,,,,,,,MSF-CH,,,,,,,,,school,,,,,,,,,,,,,,,,,,,,,
3339830617,-13.1468616,8.4094567,BABOON COLLEGE,,,,,,,MSF-CH,,,,,,,,,school,,,,,,,,,,,,,,,,,,,,,
3339870267,-13.1442328,8.4110599,BABOON COLLEGE,,,,,,,MSF-CH,,,,,,,,,school,,,,,,,,,,,,,,,,,,,,,
3339906978,-13.1717914,8.4436436,OLIVET BAPTIST PRIMARY SCHOOL,,,,,,,MSF-CH,,,,,,,,,school,,,,,,,,,,,,,,,,,,,,,
3339954440,-13.1690489,8.4485167,BROWNDEL SCHOOL,,,,,,,MSF-CH,,,,,,,,,school,,,,,,,,,,,,,,,,,,,,,
3340083531,-13.2474066,8.4783864,COVENT SCHOOL,,,,,,,MSF-CH,,,,,,,,,school,,,,,,,,,,,,,,,,,,,,,
3340083532,-13.2470558,8.4772219,FSSG SCHOOL,,,,,,,MSF-CH,,,,,,,,,school,,,,,,,,,,,,,,,,,,,,,
3340110251,-13.2468665,8.4791108,ST ANTHONY SCH,,,,,,,MSF-CH,,,,,,,,,school,,,,,,,,,,,,,,,,,,,,,
3340155232,-13.2544380,8.4782728,GOVT TECHINCAL SCH COMPOS,,,,,,,MSF-CH,,,,,,,,,school,,,,,,,,,,,,,,,,,,,,,
3340186286,-13.2559960,8.4788463,GRIL SCH COMPOS,,,,,,,MSF-CH,,,,,,,,,school,,,,,,,,,,,,,,,,,,,,,
3341831444,-13.2460490,8.4840174,FSSG SCHOOL,,,,,,,MSF-CH,,,,,,,,,school,,,,,,,,,,,,,,,,,,,,,
3341831451,-13.2468071,8.4828255,SCHOOL COMPUS SYKE STR COM,,,,,,,MSF-CH,,,,,,,,,school,,,,,,,,,,,,,,,,,,,,,
3341855622,-13.2166481,8.4905202,BISHOP JOHNSON SCHOOL,,,,,,,,,,,,,,,,school,,,,,,,,,,,,,,,,,,,,,
3341984099,-13.2201681,8.4872899,SLMB SCHOOL OLDFIELD ST,,,,,,,,,,,,,,,,school,,,,,,,,,,,,,,,,,,,,,
3341999167,-13.2131121,8.4875780,EASTEND MUNICIPAL SCHOOL,,,,,,,,,,,,,,,,school,,,,,,,,,,,,,,,,,,,,,
3341999169,-13.2125876,8.4876082,HENRY FERGUSSON SCHOOL,,,,,,,,,,,,,,,,school,,,,,,,,,,,,,,,,,,,,,
3342020381,-13.1567751,8.4194016,DELE PREPARATORY SCHOOL COMPOUND,,,,,,,MSF-CH,,,,,,,,,school,,,,,,,,,,,,,,,,,,,,,
3342024388,-13.2262722,8.4908150,UNITED MUSLIM SCHOOL,,,,,,,,,,,,,,,,school,,,,,,,,,,,,,,,,,,,,,
3342039264,-13.2180880,8.4824364,UMC PRIMARY SCHOOL GINGERHALL,,,,,,,MSF-CH,,,,,,,,,school,,,,,,,,,,,,,,,,,,,,,
3342039265,-13.2186248,8.4814007,WESLEYAN PRIMARY SCH. GINGER L,,,,,,,MSF-CH,,,,,,,,,school,,,,,,,,,,,,,,,,,,,,,
3342113916,-13.1954182,8.4719757,PEDROYAL ACADEMY SCHOOL,,,,,,,,,,,,,,,,school,,,,,,,,,,,,,,,,,,,,,
3342122943,-13.1609528,8.4277370,BILL CLINTON INTERNATIONAL SCHOOL,,,,,,,MSF-CH,,,,,,,,,school,,,,,,,,,,,,,,,,,,,,,
3342157258,-13.1783343,8.4613025,APPROVED SCHOOL FOOTBALL FIELD,,,,,,,MSF-CH,,,,,,,,,school,,,,,,,,,,,,,,,,,,,,,
3342186810,-13.1881681,8.4728447,RECHARD ALLEN SCHOOL,,,,,,,,,,,,,,,,school,,,,,,,,,,,,,,,,,,,,,
3342186811,-13.1860893,8.4741268,W5ESLYAN SCHOOL,,,,,,,,,,,,,,,,school,,,,,,,,,,,,,,,,,,,,,
3342203324,-13.1867594,8.4632517,MSF HIGH SCHOOL,,,,,,,MSF-CH,,,,,,,,,school,,,,,,,,,,,,,,,,,,,,,
3342206746,-13.1942406,8.4731135,HAMMOND SCH,,,,,,,,,,,,,,,,school,,,,,,,,,,,,,,,,,,,,,
3342206747,-13.1905710,8.4739815,INDEPENDANCE SCHOOL,,,,,,,,,,,,,,,,school,,,,,,,,,,,,,,,,,,,,,
3342206748,-13.1945257,8.4722831,MABEL PRIMARY SCHOOL,,,,,,,,,,,,,,,,school,,,,,,,,,,,,,,,,,,,,,
3342209842,-13.1806983,8.4635892,COMFORT SCHOOL,,,,,,,MSF-CH,,,,,,,,,school,,,,,,,,,,,,,,,,,,,,,
3342209843,-13.1826064,8.4628413,CONGRESS SCHOOL,,,,,,,MSF-CH,,,,,,,,,school,,,,,,,,,,,,,,,,,,,,,
3342213553,-13.1650282,8.4312731,LINCOLN INTERNATIONAL HIGH SCHOOL,,,,,,,MSF-CH,,,,,,,,,school,,,,,,,,,,,,,,,,,,,,,
3342221221,-13.1927649,8.4645903,QUEEN ELIZABETH SCHOOL,,,,,,,MSF-CH,,,,,,,,,school,,,,,,,,,,,,,,,,,,,,,
3342222115,-13.1969588,8.4659270,BETHLEHEM SCHOOL,,,,,,,,,,,,,,,,school,,,,,,,,,,,,,,,,,,,,,
3342236224,-13.1589291,8.4406201,KING FAHADI SCHOOL OLD WHARF,,,,,,,MSF-CH,,,,,,,,,school,,,,,,,,,,,,,,,,,,,,,
3342248303,-13.1603042,8.4473072,MISSION SCHOOL,,,,,,,MSF-CH,,,,,,,,,school,,,,,,,,,,,,,,,,,,,,,
3342265575,-13.1736869,8.4532826,SLMB PRIMARY SCHOOL,,,,,,,MSF-CH,,,,,,,,,school,,,,,,,,,,,,,,,,,,,,,
3342272621,-13.1764671,8.4527717,EVANGELICAL MODEL SCHOOL,,,,,,,MSF-CH,,,,,,,,,school,,,,,,,,,,,,,,,,,,,,,
3343683832,-13.1788690,8.4605819,APPROVED SCHOOL BUILDINGS,,,,,,,MSF-CH,,,,,,,,,school,,,,,,,,,,,,,,,,,,,,,
3343683835,-13.1770129,8.4587208,PENTECOSTAL SCHOOL,,,,,,,MSF-CH,,,,,,,,,school,,,,,,,,,,,,,,,,,,,,,
3345879544,-13.2961348,8.4953608,Cape Community Primary School,,,,,,,,,,,,,,,,school,,,,,,,,,,,,,,,,,,,,,
3355967594,-13.2715733,8.4546778,Sylmondral Daycare and Preschool,,,,,,,MSF-CH,,,,,,,,,school,,,,,,,,,,,,,,,,,,,,,
3370247094,-13.0147237,8.3270258,Hailsham Huntingdons Primary School,,,,,,,MSF-CH,,,,,,,,,school,,,,,,,,,,,,,,,,,,,,,
3370441095,-13.1274413,8.3843182,Zuliaka Model Academy,,,,,,,MSF-CH,,,,,,,,,school,,,,,,,,,,,,,,,,,,,,,
3371521663,-13.2347964,8.3731152,Salt Pond Community Primary School,,,,,,,MSF-CH,,,,,,,,,school,,,,,,,,,,,,,,,,,,,,,
3371663649,-13.0876205,8.3578244,Anzaru School,,,,,,,MSF-CH,,,,,,,,,school,,,,,,,,,,,,,,,,,,,,,
3371697670,-13.1036031,8.3748685,Pedro Da Central Jr School,,,,,,,MSF-CH,,,,,,,,,school,,,,,,,,,,,,,,,,,,,,,
3371765487,-13.0807214,8.3565467,Hope International Secondary School,,,,,,,MSF-CH,,,,,,,,,school,,,,,,,,,,,,,,,,,,,,,
3379435837,-13.0637060,8.3255797,REC School (Rural Education Comittee),,,,,,,MSF-CH,,,,,,,,,school,,,,,,,,,,,,,,,,,,,,,
3458601914,-12.7787495,9.3060220,,,,,,,,,,,,,,,,,school,,,,,,,,,,,,,,,,,,,,,
3474677331,-12.7162014,9.2449073,,,,,,,,,,,,,,,,,school,,,,,,,,,,,,,,,,,,,,,
3474677360,-12.7154960,9.2477518,,,,,,,,,,,,,,,,,school,,,,,,,,,,,,,,,,,,,,,
3589575477,-11.5398942,7.8881332,,2988895790,,,,,,,,,,,,,,,school,,,,,,,,,,,,,,,,,,,,,school
3589575478,-11.5759713,7.8894401,,2988851083,,,,,,,,,,,,,,,school,,,,,,,,,,,,,,,,,,,,,school
3589575482,-11.5450498,7.9040987,,2988895378,,,,,,,,,,,,,,,school,,,,,,,,,,,,,,,,,,,,,school
3589576303,-13.0039602,8.3363000,,3028480080,,,,,,,,,,,,,,,school,,,,,,,,,,,,,,,,,,,,,school
3589576834,-12.9429673,8.5083523,,3137243769,,,,,,,,,,,,,,,school,,,,,,,,,,,,,,,,,,,,,school
3589578316,-11.9708583,9.0302380,,3121249519,,,,,,,,,,,,,,,school,,,,,,,,,,,,,,,,,,,,,school
3589578346,-12.7162014,9.2449073,,3474677331,,,,,,,,,,,,,,,school,,,,,,,,,,,,,,,,,,,,,school
3589578347,-12.7154960,9.2477518,,3474677360,,,,,,,,,,,,,,,school,,,,,,,,,,,,,,,,,,,,,school
3589578348,-12.7787495,9.3060220,,3458601914,,,,,,,,,,,,,,,school,,,,,,,,,,,,,,,,,,,,,school
3589578363,-12.2444495,9.4932629,,2818709642,,,,,,,,,,,,,,,school,,,,,,,,,,,,,,,,,,,,,school
3589578383,-13.1788690,8.4605819,APPROVED SCHOOL BUILDINGS,3343683832,,,,,,,,,,,,,,,school,,,,,,,,,,,,,,,,,,,,,school
3589578384,-13.1783343,8.4613025,APPROVED SCHOOL FOOTBALL FIELD,3342157258,,,,,,,,,,,,,,,school,,,,,,,,,,,,,,,,,,,,,school
3589578417,-13.0876205,8.3578244,Anzaru School,3371663649,,,,,,,,,,,,,,,school,,,,,,,,,,,,,,,,,,,,,school
3589578422,-13.1464958,8.4079434,BABOON COLLEGE,3339830616,,,,,,,,,,,,,,,school,,,,,,,,,,,,,,,,,,,,,school
3589578423,-13.1468616,8.4094567,BABOON COLLEGE,3339830617,,,,,,,,,,,,,,,school,,,,,,,,,,,,,,,,,,,,,school
3589578424,-13.1442328,8.4110599,BABOON COLLEGE,3339870267,,,,,,,,,,,,,,,school,,,,,,,,,,,,,,,,,,,,,school
3589578427,-13.1969588,8.4659270,BETHLEHEM SCHOOL,3342222115,,,,,,,,,,,,,,,school,,,,,,,,,,,,,,,,,,,,,school
3589578430,-13.2166481,8.4905202,BISHOP JOHNSON SCHOOL,3341855622,,,,,,,,,,,,,,,school,,,,,,,,,,,,,,,,,,,,,school
3589578432,-13.1690489,8.4485167,BROWNDEL SCHOOL,3339954440,,,,,,,,,,,,,,,school,,,,,,,,,,,,,,,,,,,,,school
3589578449,-11.7412162,7.9756709,Bo Commercial Secondary School,,,,,,,,,,,,,,,,school,,,,,,,,,,,,,,,,,,,,,
3589578463,-13.1806983,8.4635892,COMFORT SCHOOL,3342209842,,,,,,,,,,,,,,,school,,,,,,,,,,,,,,,,,,,,,school
3589578466,-13.1826064,8.4628413,CONGRESS SCHOOL,3342209843,,,,,,,,,,,,,,,school,,,,,,,,,,,,,,,,,,,,,school
3589578468,-13.2474066,8.4783864,COVENT SCHOOL,3340083531,,,,,,,,,,,,,,,school,,,,,,,,,,,,,,,,,,,,,school
3589578475,-13.2961348,8.4953608,Cape Community Primary School,3345879544,,,,,,,,,,,,,,,school,,,,,,,,,,,,,,,,,,,,,school
3589578489,-11.7253495,7.9710305,Comprehensive Secondary School,,,,,,,,,,,,,,,,school,,,,,,,,,,,,,,,,,,,,,
3589578508,-13.2131121,8.4875780,EASTEND MUNICIPAL SCHOOL,3341999167,,,,,,,,,,,,,,,school,,,,,,,,,,,,,,,,,,,,,school
3589578511,-13.1764671,8.4527717,EVANGELICAL MODEL SCHOOL,3342272621,,,,,,,,,,,,,,,school,,,,,,,,,,,,,,,,,,,,,school
3589578528,-11.7241514,7.9521845,Every Nation School,,,,,,,,,,,,,,,,school,,,,,,,,,,,,,,,,,,,,,
3589578531,-13.2470558,8.4772219,FSSG SCHOOL,3340083532,,,,,,,,,,,,,,,school,,,,,,,,,,,,,,,,,,,,,school
3589578532,-13.2460490,8.4840174,FSSG SCHOOL,3341831444,,,,,,,,,,,,,,,school,,,,,,,,,,,,,,,,,,,,,school
3589578552,-13.2544380,8.4782728,GOVT TECHINCAL SCH COMPOS,3340155232,,,,,,,,,,,,,,,school,,,,,,,,,,,,,,,,,,,,,school
3589578554,-13.2559960,8.4788463,GRIL SCH COMPOS,3340186286,,,,,,,,,,,,,,,school,,,,,,,,,,,,,,,,,,,,,school
3589578564,-13.1942406,8.4731135,HAMMOND SCH,3342206746,,,,,,,,,,,,,,,school,,,,,,,,,,,,,,,,,,,,,school
3589578566,-13.2125876,8.4876082,HENRY FERGUSSON SCHOOL,3341999169,,,,,,,,,,,,,,,school,,,,,,,,,,,,,,,,,,,,,school
3589578568,-13.0147247,8.3270272,Hailsham Huntingdons Primary School,3370247094,,,,,,,,,,,,,,,school,,,,,,,,,,,,,,,,,,,,,school
3589578585,-13.0807214,8.3565467,Hope International Secondary School,3371765487,,,,,,,,,,,,,,,school,,,,,,,,,,,,,,,,,,,,,school
3589578694,-13.1905710,8.4739815,INDEPENDANCE SCHOOL,3342206747,,,,,,,,,,,,,,,school,,,,,,,,,,,,,,,,,,,,,school
3589578751,-13.1650282,8.4312731,LINCOLN INTERNATIONAL HIGH SCHOOL,3342213553,,,,,,,,,,,,,,,school,,,,,,,,,,,,,,,,,,,,,school
3589578769,-13.1945257,8.4722831,MABEL PRIMARY SCHOOL,3342206748,,,,,,,,,,,,,,,school,,,,,,,,,,,,,,,,,,,,,school
3589578785,-13.1867594,8.4632517,MSF HIGH SCHOOL,3342203324,,,,,,,,,,,,,,,school,,,,,,,,,,,,,,,,,,,,,school
3589579548,-13.1717914,8.4436436,OLIVET BAPTIST PRIMARY SCHOOL,3339906978,,,,,,,,,,,,,,,school,,,,,,,,,,,,,,,,,,,,,school
3589579553,-13.1954182,8.4719757,PEDROYAL ACADEMY SCHOOL,3342113916,,,,,,,,,,,,,,,school,,,,,,,,,,,,,,,,,,,,,school
3589579554,-13.1770129,8.4587208,PENTECOSTAL SCHOOL,3343683835,,,,,,,,,,,,,,,school,,,,,,,,,,,,,,,,,,,,,school
3589579562,-13.1036031,8.3748685,Pedro Da Central Jr School,3371697670,,,,,,,,,,,,,,,school,,,,,,,,,,,,,,,,,,,,,school
3589579574,-11.7269523,7.9710770,QRS Secondary School,,,,,,,,,,,,,,,,school,,,,,,,,,,,,,,,,,,,,,
3589579575,-13.1927649,8.4645903,QUEEN ELIZABETH SCHOOL,3342221221,,,,,,,,,,,,,,,school,,,,,,,,,,,,,,,,,,,,,school
3589579579,-13.0637060,8.3255797,REC School (Rural Education Comittee),3379435837,,,,,,,,,,,,,,,school,,,,,,,,,,,,,,,,,,,,,school
3589579580,-13.1881681,8.4728447,RECHARD ALLEN SCHOOL,3342186810,,,,,,,,,,,,,,,school,,,,,,,,,,,,,,,,,,,,,school
3589579800,-13.2468071,8.4828255,SCHOOL COMPUS SYKE STR COM,3341831451,,,,,,,,,,,,,,,school,,,,,,,,,,,,,,,,,,,,,school
3589579817,-13.1736869,8.4532826,SLMB PRIMARY SCHOOL,3342265575,,,,,,,,,,,,,,,school,,,,,,,,,,,,,,,,,,,,,school
3589579818,-13.2201205,8.4873316,SLMB SCHOOL OLDFIELD ST,3341984099,,,,,,,,,,,,,,,school,,,,,,,,,,,,,,,,,,,,,school
3589579821,-13.2468665,8.4791108,ST ANTHONY SCH,3340110251,,,,,,,,,,,,,,,school,,,,,,,,,,,,,,,,,,,,,school
3589579829,-13.2347964,8.3731152,Salt Pond Community Primary School,3371521663,,,,,,,,,,,,,,,school,,,,,,,,,,,,,,,,,,,,,school
3589579856,-13.2715733,8.4546778,Sylmondral Daycare and Preschool,3355967594,,,,,,,,,,,,,,,school,,,,,,,,,,,,,,,,,,,,,school
3589579867,-11.7421276,7.9680135,The AWADA School,,,,,,,,,,,,,,,,school,,,,,,,,,,,,,,,,,,,,,
3589579877,-11.7200348,7.9527593,Tony Blair School,,,,,,,,,,,,,,,,school,,,,,,,,,,,,,,,,,,,,,
3589579882,-13.2180880,8.4824364,UMC PRIMARY SCHOOL GINGERHALL,3342039264,,,,,,,,,,,,,,,school,,,,,,,,,,,,,,,,,,,,,school
3589579885,-13.2262722,8.4908150,UNITED MUSLIM SCHOOL,3342024388,,,,,,,,,,,,,,,school,,,,,,,,,,,,,,,,,,,,,school
3589579890,-12.8283606,8.1201624,Vine Memorial Baptist School,1988184292,,,,,,,,,,,,,,,school,,,,,,,,,,,,,,,,,,,,,school
3589579892,-13.1860893,8.4741268,W5ESLYAN SCHOOL,3342186811,,,,,,,,,,,,,,,school,,,,,,,,,,,,,,,,,,,,,school
3589579894,-13.2186248,8.4814007,WESLEYAN PRIMARY SCH. GINGER L,3342039265,,,,,,,,,,,,,,,school,,,,,,,,,,,,,,,,,,,,,school
3589579909,-13.1274413,8.3843182,Zuliaka Model Academy,3370441095,,,,,,,,,,,,,,,school,,,,,,,,,,,,,,,,,,,,,school
3589607725,-11.7345777,7.9707866,Ahmadiyya Muslim Senior Secondary School,,,,,,,,,,,,,,,Ahmadiyya Road,school,,,,,,,,,,,,,,,,,,,,,
3589607755,-11.7445428,7.9721591,Craftshare,,,,,,,,,,,,,,,Reservation Road,school,,,,,,,,,,,,,,,,,Institution,,,,
3589640110,-11.7408575,7.9605297,SLOIC,,,,,,,,,,,,,,,Matru Road,school,,,,,,,,,,,,,,,,,Institution,,,,
3589640127,-11.7349973,7.9622050,Saint Mary's Vocational centre,,,,,,,,,,,,,,,Mahei-Boima Road,school,,,,,,,,,,,,,,,,,Institution,,,,
3589640141,-11.7495502,7.9631476,Women and Youth Strenghtening (WAYS),,,,,,,,,,,,,,,Gbaima Road,school,,,,,,,,,,,,,,,,,Institution,,,,
3830487958,-13.1943886,8.4719364,St Mary's Balamorie Primary School,,,,,,,,,,D Jones,,,,,,school,,,,,,,,,,,,,,,,,,,,,
3923474844,-11.7443667,7.9653350,Paul School for the Blind,,,,,,,,,,,,,,,,school,,,,,,,,,,,,,,,,,,,,,
4192479562,-11.3743150,7.0130397,Alexander Kettet Academy (A.K.A.),,,,,,3,Red Cross Field Survey,,,Providence Baptist Church,,,,0886536045,,school,,,christian,,Bo Waterside,,,,,,,,,,,78,,,,yes,
4192479586,-11.3738108,7.0119109,Jafaria Islamic And English School,,,,,,,Red Cross Field Survey,,,private,,,,0886339565,,school,,,muslim,,Bo Waterside,,,,,,,,,,,390,,,,yes,
4192479814,-11.3749695,7.0126883,Science & Technology Building,,,,,,,Red Cross Field Survey,,,Providence Baptist Church,,,,0886820834,,school,,,christian,,Bo Waterside,,,,,,,,,,,88,,,,yes,
4441270735,-11.9209716,8.7268193,Rowall Primary School,,,,,,,,,,,,,,,,school,,,,,,,,,,,,,,,,,,,,,
4441291008,-11.9445382,8.7187888,Boy's School,,,,,,,,,,,,,,,,school,,,,,,,,,,,,,,,,,,,,,
4488786692,-11.1864738,7.8664541,Holy Rosary Secondary School,,,,,,,,,,,,,,,,school,,,,,,,,,,,,,,,,,,,,,
4488871290,-11.1906426,7.8808921,St. Charles Primary School,,,,,,,,,,,,,,,,school,,,,,,,,,,,,,,,,,,,,,
4489199394,-11.1964933,7.8606249,Islamic Secondary School,,,,,,,,,,,,,,,,school,,,,,,,,,,,,,,,,,,,,,
4489229493,-11.2061500,7.8518676,Ahmadiyya Secondary School,,,,,,,,,,,,,,,,school,,,,,,,,,,,,,,,,,,,,,
4489243891,-11.1910672,7.8810185,St. Charles Primary School,,,,,,,,,,,,,,,,school,,,,,,,,,,,,,,,,,,,,,
4489243893,-11.1992925,7.8634217,Holy Trinity Secondary School,,,,,,,,,,,,,,,,school,,,,,,,,,,,,,,,,,,,,,
4489244889,-11.1822673,7.8763976,Eastern Polytechnic College,,,,,,,,,,,,,,,,school,,,,,,,,,,,,,,,,,,,,,
4489247089,-11.1842816,7.8707310,SDA Primary School,,,,,,,,,,,,,,,,school,,,,,,,,,,,,,,,,,,,,,
4489255791,-11.1878358,7.8786493,SLC Primary School,,,,,,,,,,,,,,,,school,,,,,,,,,,,,,,,,,,,,,
4489258891,-11.1965653,7.8634935,Citadel Private School,,,,,,,,,,,,,,,,school,,,,,,,,,,,,,,,,,,,,,
4513791897,-10.7087517,8.7881317,R C Primary School Kombayendeh,,,,232,,,Red Cross Field Survey,,,,,,Kono,,Kunundu Road,school,,,,,Kombayedeh,,,,,,,,,Yes,,,,,,,
4514040917,-12.9152133,9.1209992,,,,,,,,Red Cross Field Survey,,,,,,Kambia,,SLMB Road,school,,,,,Kambia,,,,ngo,,,,,Yes,,,,,,,
4523271964,-12.2997777,7.7842084,Impere Secondary School,,,,,,,,,,,,,,,,school,,,,,Moribatown,,,,,,,,,,,,,,,,
4534569566,-10.6962271,8.6058540,Tailoring Department Training Shop,,,,232,,,Red Cross Field Survey,concrete,,,,,Kono,,kamayador road,school,,,,,Manjama,,,,,average,,,clothes,,,,,,,,
4540110813,-13.2373488,8.4884079,school,,,,232,,,Red Cross Field Survey,,,,,,Koinadugu,,test,school,,,,,Freetown,,,24,,,,,hardware,,,,,,,,
4546690475,-12.9989398,8.9706239,Ahmadiya Muslim Primary School,,,,,,,Red Cross Field Survey,,,Ministry of Education  Science and Technology,,,,,Laminaya,school,,,muslim,,Rosino,,,,,,,,,,,287,,,,yes,
4546690476,-12.9985478,8.9701336,Ahmadiya Junior,,,,,,,Red Cross Field Survey,,,Ministry of Education  Science and Technology,,,,,Laminaya,school,,,muslim,,Rosino,,,,,,,,,,,256,,,,yes,
4546712908,-12.9215778,9.1142965,WCSL Primary School,,,,,,,Red Cross Field Survey,,,Wesleyan Church of Sierra Leone,,,Kambia,,Town Field Rd,school,,,christian,,Kambia,,,,,,,,,,,350,,,,yes,
4546712909,-12.9192510,9.1223792,WCSL School,,,,,,,Red Cross Field Survey,,,Wesleyan Church of Sierra Leone,,,Kambia,,Town Field Rd,school,,,christian,,Kambia,,,,,,,,,,,250,,,,yes,
4546712910,-12.9152270,9.1213651,,,,,,,,Red Cross Field Survey,,,Mr Conteh,,,Kambia,,Slmb Rd,school,,,christian,,Kambia,,,,,,,,,,,510,,,,yes,
4546712911,-12.9199075,9.1279379,Kindlya Preparatory School,,,,,,,Red Cross Field Survey,,,Kadie S Yillah,,,Kambia,077639794,Malaymusaia,school,,,christian,,Kambia,,,,,average,,,,,,159,,,,yes,
4546712912,-12.9238835,9.1041532,Kolenten Secondary School Kambia,,,,,,,Red Cross Field Survey,,,Mr Jack,,,Kambia,078066423,Freetown Road,school,,,christian,,Kambia,,,,,,,,,,,98,,,,yes,
4546715058,-12.6639318,9.3961097,Umaro Muthar,,,,,,,Red Cross Field Survey,,,ngo,,,,,Komboma,school,,,muslim,,Kukuna,,,,,,,,,,,176,,,,yes,
4546715059,-12.6660991,9.3939609,KDEC Primary School,,,,,,,Red Cross Field Survey,,,government,,,,076588588,Komboma,school,,,muslim,,Kukuna,,,,,,,,,,,378,,,,no,
4546715060,-12.6641035,9.3958662,Umaro Muthar Secondary School,,,,,,,Red Cross Field Survey,,,Umaro Muthar Mission,,,,088802962,Komboma,school,,,muslim,,Kukuna,,,,,,,,,,,243,,,,yes,
4546732202,-12.2238564,9.6764205,Edunation Secondary School,,,,,,,Red Cross Field Survey,,,Missionary,,,,,Fondakhurie Road,school,,,christian,,Fintonia,,,,,,,,,,,210,,,,yes,
4546734364,-11.6426794,9.9417620,,,,,,,,Red Cross Field Survey,,,,,,,,Musara Road,school,,,,,Gbentu,,,,,,,,,,,125,,,,yes,
4546734365,-11.6455078,9.9422316,,,,,,,,Red Cross Field Survey,,,Ministry of Education  Science and Technology,,,,,Gbentu 1,school,,,muslim,,Gbentu,,,33,,,,,,,,,,,,no,
4546734366,-11.6479540,9.9440281,,,,,,,,Red Cross Field Survey,,,,,,,,Gbentu 1,school,,,muslim,,Gbentu,,,51,,,,,,,,97,,,,no,
4546735050,-11.6586200,9.8000567,,,,,,,,Red Cross Field Survey,,,,,,,,,school,,,christian,,Mamudia,,,,,,,,,,,254,,,,yes,
4546735430,-11.4447259,9.9100210,Nursery School,,,,,,,Red Cross Field Survey,,,,,,,,Yeaba,school,,,,,Gbindi,,,,,,,,,,,,,,,no,
4546817744,-10.5609620,8.2682227,Free Pentecostal Primary School,,,,,,,Red Cross Field Survey,,,Free Pentecostal Mission,,,,030686122,Beudu Road,school,,,christian,,Kailahun,,,,,,,,,,,308,,,,no,
4546817745,-10.4979086,8.3298090,Roman Catholic Primary School,,,,,,,Red Cross Field Survey,,,Morie Vandi,,,,088911448,Dia High Way,school,,,christian,,Mano Sewallu,,,,,,,,,,,271,,,,no,
4546817746,-10.5797584,8.2749280,Eccd,,,,,,,Red Cross Field Survey,,,Save The Children,,,Kailahun,077658508,Moiwo Street,school,,,,,Kailahun,,,,,,,,,,,90,,,,yes,
4546817747,-10.5679250,8.2846049,Community Primary School,,,,,,,Red Cross Field Survey,,,Jemba Gbandi Ngobeh,,,,076557954,Massanta Section,school,,,,,Kailahun,,,,,,,,,,,472,,,,no,
4546819616,-10.9563410,9.5339397,Lower Primary School,,,,,,,Red Cross Field Survey,,,R.C. Mission,,,,078021718,Seria Road,school,,,christian,,Mongo Bendugu,,,,,,,,,,,,,,,yes,
4546819617,-10.8754563,9.3475428,Primary Upper,,,,,,,Red Cross Field Survey,,,Ministry of Education  Science and Technology,,,,,Kamaron Town,school,,,christian,,Kamaron,,,,,,,,,,,167,,,,no,
4546819618,-10.8748877,9.3475428,,,,,,,,Red Cross Field Survey,,,Ministry of Education  Science and Technology,,,,,Kamaron Junction,school,,,christian,,Kamaron,,,,,,,,,,,140,,,,no,
4546819619,-10.9566307,9.5344158,Upper Primary,,,,,,,Red Cross Field Survey,,,R.C. Mission,,,Koinadugu,078021718,Seria Road,school,,,christian,,Mongo Bendugu,,,,,,,,,,,459,,,,no,
4546819620,-10.9223057,9.4647648,,,,,,,,Red Cross Field Survey,,,,,,,,Seria Street,school,,,,,Seria,,,,,,,,,,,400,,,,,
4546819621,-10.9223057,9.4649090,,,,,,,,Red Cross Field Survey,,,,,,,,Seria Street,school,,,,,Seria,,,,,,,,,,,300,,,,yes,
4546820085,-10.8602965,8.4336162,Umc Primary School,,,,,,,Red Cross Field Survey,,,Moest,,,,088740771,Mission,school,,,christian,,Gandorhun,,,,,,,,,,,538,,,,yes,
4546820086,-10.8604789,8.4324488,Umc Primary School,,,,,,,Red Cross Field Survey,,,Moest,,,,088740771,Mission,school,,,christian,,Gandorhun,,,,,,,,,,,538,,,,yes,
4546820087,-10.8619645,8.4373019,Ansarul Islamic Primary School,,,,,,,Red Cross Field Survey,,,Moest,,,,030462696,Ansarul School Compound,school,,,muslim,,Gandorhun,,,,,,,,,,,389,,,,,
4546820088,-10.8609963,8.4387219,Ansarul Islamic Primary School,,,,,,,Red Cross Field Survey,,,Ministry of Education  Science and Technology,,,,030462696,Ansarul School Compound,school,,,muslim,,Gandorhun,,,,,,,,,,,389,,,,,
4546820152,-10.7366230,8.9404541,,,,,,,,Red Cross Field Survey,,,,,,,,Main Fosama Road,school,,,muslim,,Bandapirie,,,,,,,,,,,50,,,,yes,
4546820153,-10.7659403,8.8549670,Koema Community Primary School,,,,,,,Red Cross Field Survey,,,,,,,079529136,Kwankor Road,school,,,,,Koema,,,,,,,,,,,202,,,,yes,
4546820154,-10.7093649,8.7852959,Lei Agricultural And Vocational School,,,,,,,Red Cross Field Survey,,,Paul Saa Sam,,,,,Kunudu Road,school,,,,,Kombayendeh,,,,,,,,,,,,,,,no,
4546820155,-10.6345403,8.8930852,R C Primary School Gbongongor,,,,,,,Red Cross Field Survey,,,Moest,,,,076714738,Community School,school,,,christian,,Gbongongor,,,,,,,,,,,181,,,,yes,
4546820260,-10.6976470,8.6018810,,,,,,,,Red Cross Field Survey,,,,,,,,Bongema Road,school,,,christian,,Manjama,,,,,,,,,,,60,,,,yes,
4546820261,-10.6685360,8.6448566,Primary School,,,,,,,Red Cross Field Survey,,,,,,,,Main Manjama Road,school,,,,,Gbamundu,,,,,,,,,,,150,,,,yes,
4546820262,-10.5257384,8.6581708,R C Primary School,,,,,,,Red Cross Field Survey,,,Ministry of Education  Science and Technology,,,,078536691/077386174,Kamayador Road,school,,,christian,,Densabadu,,,,,,,,,,,290,,,,yes,
4546820263,-10.6996536,8.6103638,Rc School,,,,,,,Red Cross Field Survey,,,Ministry of Education  Science and Technology,,,,,Kankordu Road,school,,,christian,,Manjama,,,,,,,,,,,326,,,,,
4546820264,-10.6996536,8.6100244,R C Primary School,,,,,,,Red Cross Field Survey,,,Ministry of Education  Science and Technology,,,,,Kankordu Road,school,,,christian,,Manjama,,,,,,,,,,,326,,,,,
4546820265,-10.6663412,8.6409326,Primary School,,,,,,,Red Cross Field Survey,,,,,,,,Manama Road,school,,,,,Gbamundu,,,,,,,,,,,139,,,,yes,
4546820539,-10.3311496,8.4603025,Smile With Us Primary School,,,,,,,Red Cross Field Survey,,,,,,,,Liberia Road,school,,,christian,,Koindu,,,,,,,,,,,,,,,no,
4546820540,-10.3431811,8.4699752,Slmb Primary School,,,,,,,Red Cross Field Survey,,,Mr. Jorfeh,,,,076889639,Bombodu,school,,,muslim,,Koindu,,,,,,,,,,,400,,,,yes,
4546820541,-10.3352289,8.4618213,Jimmy Ann's Building,,,,,,,Red Cross Field Survey,,,Emmanuel Jimmy,,,,088123237,Liberia Road,school,,,christian,,Koindu,,,,,,,,,,,,,,,yes,
4546820542,-10.3470397,8.4619090,Ansarul Islamic Primary School,,,,,,,Red Cross Field Survey,,,Ansarul Mission,,,,076767654,Foidu Road,school,,,muslim,,Koindu,,,,,,,,,,,171,,,,no,
4546821127,-10.7073146,8.3926914,Primary School,,,,,,,Red Cross Field Survey,,,Kadiatu Janneh,,,,088411418,Kanjanhun Road,school,,,,,Sandaru,,,,,,,,,,,30,,,,no,
4546821128,-10.7235076,8.4160120,R.C. Primary School Konobendu,,,,,,,Red Cross Field Survey,,,government,,,,078918325,Grima Road,school,,,christian,,Konobendu,,,,,,,,,,,210,,,,yes,
4546821189,-10.8605111,8.4320774,Umc Primary School,,,,,,,Red Cross Field Survey,,,Moest,,,,088740771,Mission,school,,,christian,,Gandorhun,,,,,,,,,,,538,,,,yes,
4546821190,-10.8679499,8.4336695,Kdec Prim. Sch. Gandorhun,,,,,,,Red Cross Field Survey,,,,,,,,Teyama Road,school,,,,,Gandorhun,,,,,,,,,,,86,,,,yes,
4546821191,-10.8603823,8.4331705,Umc Primary School,,,,,,,Red Cross Field Survey,,,Moest,,,,088740771,Mission,school,,,christian,,Gandorhun,,,,,,,,,,,538,,,,yes,
4546821192,-10.8603501,8.4328945,Umc Primary School,,,,,,,Red Cross Field Survey,,,Moest,,,,088740771,Mission,school,,,christian,,Gandorhun,,,,,,,,,,,538,,,,yes,
4546821193,-10.8670247,8.4321280,,,,,,,,Red Cross Field Survey,,,R.C. Mission,,,,,Old Town,school,,,christian,,Gandorhun,,,,,,,,,,,,,,,yes,
4546821534,-10.4850447,8.2036748,,,,,,,,Red Cross Field Survey,,,Islamic Council,,,,088217787,Kailahun Road,school,,,muslim,,Nyadenhun,,,,,,,,,,,40,,,,yes,
4546821535,-10.4847014,8.2025279,,,,,,,,Red Cross Field Survey,,,,,,,077070475,Menndekeima Road,school,,,christian,,Nyadenhun,,,,,,,,,,,210,,,,yes,
4546821536,-10.4852778,8.2033170,Roman Catholic,,,,,,,Red Cross Field Survey,,,Missionary,,,,088862290,Kawama,school,,,christian,,Nyadenhun,,,,,,,,,,,567,,,,yes,
4546822050,-10.3692576,8.2770909,National Islamic Primary School,,,,,,,Red Cross Field Survey,,,Festus F Momoh,,,,030027754,Dawa Road,school,,,muslim,,Buedu,,,,,,,,,,,372,,,,no,
4546822052,-10.3705499,8.2830763,Amadiyya Muslim Primary School,,,,,,,Red Cross Field Survey,,,Amadiyya Mission,,,,,Bayama Section,school,,,muslim,,Buedu,,,,,,,,,,,,,,,,
4546822053,-10.3705646,8.2841467,Aldura Primary School,,,,,,,Red Cross Field Survey,,,Aldura Mission,,,,076149625/030030007,Bayama Section,school,,,christian,,Buedu,,,,,,,,,,,190,,,,no,
4546822054,-10.3719735,8.2790310,Community Pre And Primary School,,,,,,,Red Cross Field Survey,,,,,,,030863430,Kailahun,school,,,,,Buedu,,,,,,,,,,,315,,,,yes,
4546822992,-10.7521713,8.1716040,Methodist Primary School,,,,,,,Red Cross Field Survey,,,Mission School,,,,099549430,Hospital Area,school,,,,,Manowa,,,,,,,,,,,508,,,,yes,
4546822993,-10.7503732,8.1728852,Peje Bongerey Junior Secondary School,,,,,,,Red Cross Field Survey,,,government,,,,,Bobby Road,school,,,christian,,Manowa,,,,,,,,,,,300,,,,yes,
4546826152,-10.6918129,8.1066324,,,,,,,,Red Cross Field Survey,,,Ahmadiyys Misson,,,,076845321,Manila Road,school,,,muslim,,Pendembu,,,,,,,,,,,253,,,,yes,
4546826153,-10.7039779,8.0963424,,,,,,,,Red Cross Field Survey,,,,,,,088409733,Kaneya,school,,,christian,,Pendembu,,,,,,,,,,,123,,,,yes,
4546826154,-10.6984471,8.1003686,S.L.M.B Secondary School,,,,,,,Red Cross Field Survey,,,S.L.M.B Mission,,,Kailahun,,Kailahun Road,school,,,muslim,,Pendembu,,,,,,,,,,,262,,,,no,
4546826155,-10.6987224,8.1045706,,,,,,,,Red Cross Field Survey,,,government,,,,,I Mile,school,,,christian,,Pendembu,,,,,,,,,,,395,,,,no,
4546826156,-10.7003725,8.0974808,Ahmadiyya,,,,,,,Red Cross Field Survey,,,government,,,,078905614,Pendembu Y,school,,,muslim,,Pendembu,,,,,,,,,,,342,,,,yes,
4546826157,-10.6986858,8.1004808,K.D.E. C Primary School,,,,,,,Red Cross Field Survey,,,government,,,,,Off Kailahun Road,school,,,multifaith,,Pendembu,,,,,,,,,,,306,,,,no,
4546826158,-10.6594759,8.0743590,,,,,,,,Red Cross Field Survey,,,R.C. Mission,,,,078153216,,school,,,christian,,Semabu,,,,,,,,,,,150,,,,yes,
4546828893,-10.7933271,7.8815021,,,,,,,,Red Cross Field Survey,,,government,,,,079523008,Niagorehun Road,school,,,christian,,Jojoima,,,,,,,,,,,390,,,,no,
4546828894,-10.7939065,7.8817784,,,,,,,,Red Cross Field Survey,,,government,,,,079523008,Niagorehun Road,school,,,christian,,Jojoima,,,,,,,,,,,390,,,,no,
4546828895,-10.7942820,7.8817784,,,,,,,,Red Cross Field Survey,,,government,,,,079523008,Niagorehun Road,school,,,christian,,Jojoima,,,,,,,,,,,390,,,,no,
4546829269,-10.7552421,7.9967692,Rc School,,,,,,,Red Cross Field Survey,,,Missionary,,,,078587952,Mobia,school,,,christian,,Mobai,,,,,,,,,,,346,,,,yes,
4546829270,-10.7550240,7.9970022,,,,,,,,Red Cross Field Survey,,,Ndomakeh Federation,,,,076149448,Monica High,school,,,christian,,Mobai,,,,,,,,,,,150,,,,yes,
4546829271,-10.7558238,7.9946548,S.L.M.B Primary School,,,,,,,Red Cross Field Survey,,,Mission,,,,076973725,Ghon,school,,,muslim,,Mobai,,,,,,,,,,,301,,,,yes,
4546830126,-10.9964336,7.5246019,Roman Catholic Primary School,,,,,,,Red Cross Field Survey,,,Catholic Mission,,,,079478111,,school,,,christian,,Faama,,,,,,,,,,,108,,,,yes,
4546896807,-11.3604657,7.2458564,School,,,,,,,,,,Government,,,,076713256,Jendama,school,,,muslim,,Gofor,,,1,,,,,,,,370,,,,yes,
4546898159,-11.3841215,7.0224013,School,,,,,,,Red Cross Field Survey,,,Government,,,,078356715,jendama Road,school,,,muslim,,Jendema,,,,,,,,,,,246,,,,yes,
4546898160,-11.3878986,7.0236935,UMC high school,,,,,,,Red Cross Field Survey,,,UMC,,,,078929408,Liberia highway,school,,,christian,,Jendema,,,,,,,,,,,108,,,,yes,
4546898161,-11.3903537,7.0226974,R.C School,,,,,,,Red Cross Field Survey,,,Government,,,,079 712061,Jendema Road,school,,,,,Jendema,,,,,,,,,,,280,,,,,
4546902498,-10.7851747,7.8728518,Provincial Islamic Primary School,,,,,,,Red Cross Field Survey,,,Government,,,,078577436,Kpangeima Road,school,,,muslim,,Jojoima,,,,,,,,,,,567,,,,no,
4546902499,-10.7859366,7.8722599,Provincial Islamic Junior Secondary School,,,,,,,Red Cross Field Survey,,,Government,,,,076710358,Kpangeima Road,school,,,muslim,,Jojoima,,,,,,,,,,,290,,,,yes,
4546902500,-10.7945404,7.8804930,Law Memorial Methodist,,,,,,,Red Cross Field Survey,,,Government,,,,076550033,Missions Compound,school,,,christian,,Jojoima,,,,,,,,,,,280,,,,yes,
4546902712,-10.7509408,7.9899677,School,,,,,,,Red Cross Field Survey,,,Government,,,,079994727,Geyeya,school,,,muslim,,Mobai,,,,,,,,,,,150,,,,no,
4546903297,-10.7000179,8.0975590,School,,,,,,,Red Cross Field Survey,,,Government,,,,088304199,Kaneya,school,,,muslim,,Pendembu,,,,,,,,,,,650,,,,yes,
4546903298,-10.7047467,8.0972734,Ahmadyya Muslim Primary School,,,,,,,Red Cross Field Survey,,,Ahmadiyya Mission,,,,,Kaniya,school,,,muslim,,Pendembu,,,,,,,,,,,323,,,,no,
4546903299,-10.7044162,8.0968398,Ahmadiyya Muslim Primary School,,,,,,,,,,Ahmadiyya Mission,,,,,Kaniya,school,,,muslim,,Pendembu,,,,,,,,,,,321,,,,no,
4546903300,-10.6919909,8.0996719,School,,,,,,,Red Cross Field Survey,,,Government,,,,030807628,Varma,school,,,christian,,Pendembu,,,,,,,,,,,260,,,,no,
4546903301,-10.6976764,8.0954133,Methodist Primary School,,,,,,,Red Cross Field Survey,,,Methodist Mission,,,,078057368,Kenema ..Pendembu Highway,school,,,christian,,Pendembu,yes,,,,,,,,,,324,,,,no,
4546903353,-10.3695792,8.2775128,Eastern Islamic Secondary schools,,,,,,,Red Cross Field Survey,,,Jacob Amara Yankuba,,,,077175788,Lahunlah Street,school,,,muslim,,Buedu,,,00,,,,,,,,250,,,,yes,
4546903354,-10.3670347,8.2835855,Kissi Tongi High school,,,,,,,Red Cross Field Survey,,,Catholic Mission,,,,110501302,Makor Road,school,,,christian,,Buedu,,,00,,,,,,,,509,,,,yes,
4546903355,-10.3833580,8.2799303,Kissi Tongi Community Secondary school,,,,,,,Red Cross Field Survey,,,Ministry of Education,,,,078661311,Kailahun Buedu road,school,,,,,Buedu,,,00,,,,,,,,176,,,,yes,
4546903356,-10.3738622,8.2772784,Roman Catholic Primary school,,,,,,,Red Cross Field Survey,,,Catholic Mission,,,,078876466,Buedu kailahun road,school,,,christian,,Buedu,,,00,,,,,,,,492,,,,no,
4546908970,-10.5636114,8.2712994,Amadiyya Muslim Primary school 's Building,,,,,,,Red Cross Field Survey,,,Mrs Juliet M Korjie,,,,077237695,Beudu Road,school,,,muslim,,Kailahun,,,146A,,,,,,,,383,,,,yes,
4546908971,-10.5741784,8.2847284,Methodist Primary school,,,,,,,Red Cross Field Survey,,,Method Church Sierra Leone,,,,076168316,Mofindor road,school,,,christian,,Kailahun,,,00,,,,,,,,859,,,,no,
4546908972,-10.5817224,8.2650801,Methodist Secondary School Kailahun Town,,,,,,,Red Cross Field Survey,,,Christina,,,,076643631,Pendembu Road,school,,,christian,,Kailahun,,,00,,,,,,,,980,,,,yes,
4546908973,-10.5744981,8.2843145,Methodist pre-primary school,,,,,,,Red Cross Field Survey,,,Method church Sierra Leone,,,,078910477,,school,,,christian,,Kailahun,,,,,,,,,,,120,,,,no,
4546908974,-10.5617250,8.2722773,Tahir Amadiyya Muslim Secondary school,,,,,,,Red Cross Field Survey,,,Ministry of Education,,,,078977516/030874899,Dodowulo Junction Section,school,,,muslim,,Kailahun,,,14A,,,,,,,,696,,,,yes,
4546908975,-10.5709540,8.2842283,Lutheran Primary school,,,,,,,Red Cross Field Survey,,,Lutheran Mission,,,,099561234,,school,,,christian,,Kailahun,,,,,,,,,,,150,,,,no,
4546908976,-10.5741834,8.2800705,Sunday School block,,,,,,,Red Cross Field Survey,,,Rogers Memorial Methodist Church,,,,078414401,Mofindor Road,school,,,christian,,Kailahun,,,30,,,,,,,,70,,,,no,
4546908977,-10.5811092,8.2755955,K L D E C Primary School kailahun Town,,,,,,,Red Cross Field Survey,,,Christina,,,,088038938,Baoma Road,school,,,christian,,Kailahun,,,00,,,,,,,,943,,,,yes,
4546908978,-10.5827014,8.2695485,(CAR) Centre Vocational School Kailahun,,,,,,,Red Cross Field Survey,,,Sierra Leone Red Cross Society,,,,079200431,Kulula Section,school,,,,,Kailahun,,,22,,,,,,,,150,,,,yes,
4546908979,-10.5630121,8.2662617,Maahaad Alie Islamic Secondary school,,,,232,,,Red Cross Field Survey,,,Maahaad Alie Islamic Mission,,,Kailahun,077421847,Yadohun Road,school,,,muslim,,Kailahun,,,00,,,,,,,,48,,,,yes,
4546908980,-10.5741247,8.2903531,Kadie James house,,,,232,,,Red Cross Field Survey,,,,,,Kailahun,076590189,Mofindor road,school,,,muslim,,Kailahun,,,136d,,,,,,,,,,,,yes,
4546908981,-10.5657270,8.2784696,Sierra Leone Muslim Brotherhood,,,,,,,Red Cross Field Survey,,,SLMB Mission,,,,088702346,Buedu Road,school,,,,,Kailahun,,,00,,,,,,,,565,,,,,
4546908982,-10.5692995,8.2778289,Pre-Primary Day Care Center,,,,,,,Red Cross Field Survey,,,Kailahun Community Government Assisted,,,,076557951,Buedu Road,school,,,,,Kailahun,,,51,,,,,,,,420,,,,yes,
4546908983,-10.5688211,8.2845739,National Islamic Primary School,,,,,,,Red Cross Field Survey,,,A S Amara,,,,076531499,massanta section,school,,,muslim,,Kailahun,,,00,,,,,,,,300,,,,no,
4546908984,-10.5799613,8.2757726,Women in Criss Movement,,,,,,,Red Cross Field Survey,,,Christina,,,,030717257,Baoma Road,school,,,christian,,Kailahun,,,6,,,,,,,,146,,,,,
4546908985,-10.5837402,8.2675747,Ahmadiyya 2 Primary School Kailahun Town,,,,,,,Red Cross Field Survey,,,,,,,088956199,Kulula Section,school,,,muslim,,Kailahun,,,42,,,,,,,,232,,,,yes,
4546908986,-10.5797354,8.2816354,National Junior Secondary school,,,,,,,Red Cross Field Survey,,,Catholics Mission,,,,088525734,Nyanyahun road,school,,,christian,,Kailahun,,,41,,,,,,,,1002,,,,yes,
4546908987,-10.5679165,8.2850205,community primary school,,,,,,,Red Cross Field Survey,,,Jemba Gbandi Ngobeh,,,,076557954,massanta section,school,,,christian,,Kailahun,,,77,,,,,,,,472,,,,no,
4546908988,-10.5657554,8.2768110,Roman Catholic Primary School (2),,,,,,,Red Cross Field Survey,,,Roman Catholic Mission,,,,099918603/076644170,Kambama Section,school,,,christian,,Kailahun,,,00,,,,,,,,616,,,,no,
4546909389,-10.5633461,8.2658954,Higher Institute Islamic secondary school,,,,,,,Red Cross Field Survey,,,Arabic Mission,,,,077421847,Yadohun Road,school,,,muslim,,Kailahun,,,00,,,,,,,,48,,,,,
4546909390,-10.5629599,8.2663856,Maahaad Alie Islamic primary school,,,,,,,Red Cross Field Survey,,,Maahaad Alie Mission,,,,077421847,Yadohun Road,school,,,muslim,,Kailahun,,,00,,,,,,,,63,,,,yes,
4546909391,-10.5804515,8.2646385,Jaluahun Vocational School,,,,,,,Red Cross Field Survey,,,Government,,,,088968224,Pendembu Road,school,,,,,Kailahun,,,00,,,,,,,,150,,,,yes,
4546909392,-10.5744174,8.2813787,Luawa International Academy,,,,,,,Red Cross Field Survey,,,Mr. John S. Kabba,,,,077200523,Mofindor Road,school,,,private,,Kailahun,,,48,,,,,,,,80,,,,yes,
4546909393,-10.5667296,8.2862514,New havest ministry,,,,232,,,Red Cross Field Survey,,,Sahr Fayia,,,Kailahun,088677037,massanta section,school,,,christian,,Kailahun,,,00,,,,,,,,,,,,no,
4546911361,-10.4903880,8.3332888,SLMB Primary school,,,,,,,Red Cross Field Survey,,,SLMB Mission,,,,079223429  088932592,Kailahun Koindu highway,school,,,muslim,,Manosewallu,,,00,,,,,,,,263,,,,no,
4546924998,-10.4048191,8.3886173,BOYD Primary School,,,,,,,Red Cross Field Survey,,,Evangelical Baptist Mission,,,,030129269,Koindu Road  Dia Town,school,,,christian,,Dia,,,00,,,,,,,,,,,,,
4546926305,-10.3425621,8.4571941,Apostolic primary school,,,,,,,Red Cross Field Survey,,,Sahr Bekah,,,,088038800,Kangama road,school,,,christian,,Buedu,,, 0000,,,,,,,,50,,,,no,
4546926306,-10.3333430,8.4598895,R C 1 Primary school koindu town,,,,232,,,Red Cross Field Survey,,,,,,,077253424,Liberia Road,school,,,christian,,Buedu,,,00,,,,,,,,10,,,,yes,
4546926307,-10.3440726,8.4659444,Ronan Catholic primary school,,,,,,,Red Cross Field Survey,,,Cordelia F Tamba,,,,030595366/088673262,Bonbodu,school,,,christian,,Buedu,,,000,,,,,,,,297,,,,no,
4546926308,-10.3456099,8.4653453,free Pantecostl Mission Primary School,,,,,,,Red Cross Field Survey,,,Christina,,,,076547958,Foradu Road,school,,,christian,,Buedu,,,00,,,,,,,,400,,,,yes,
4546926309,-10.3219936,8.4618623,Kissi Bendu secondary school,,,,,,,Red Cross Field Survey,,,Ministry of Education,,,,076832886,Liberia road,school,,,christian,,Buedu,,,00,,,,,,,,865,,,,,
4546926310,-10.3437040,8.4693333,Hawa Kallon's House,,,,232,,,Red Cross Field Survey,,,Mr. Korfeh,,,Kailahun,076889639,Bombodu,school,,,muslim,,Buedu,,,00,,,,,,,,200,,,,yes,
4546926333,-12.2239937,9.6769147,Edunation primary school,,,,,,,Red Cross Field Survey,,,missionary school,,,,,Fondakhurie road,school,,,christian,,Fintonia,,,00,,,,,,,,110,,,,no,
4546927101,-11.4444540,9.9091778,DEC,,,,,,,Red Cross Field Survey,,,Education Office,,,,076267228,Yeaba,school,,,,,Gbindi,,,,,,,,,,,469,,,,no,
4546927102,-11.4443983,9.9097780,School,,,,,,,Red Cross Field Survey,,,Education Office,,,,076267228,Yeaba,school,,,,,Gbindi,,,,,,,,,,,469,,,,,
4546958172,-12.9243680,9.1148795,KDC Church of the Lord,,,,,,,Red Cross Field Survey,,,private,,,,079265589,precision,school,,,christian,,Kambia,,,32,,,,,,,,779,,,,,
4546958173,-12.9366765,9.1252979,KDC Rogbara,,,,,,,Red Cross Field Survey,,,MOEST,,,,,Guinea highway,school,,,,,Rogbray,,,,,,,,,,,470,,,,,
4546958174,-12.9342815,9.1075620,Kambia Islamic secondary school,,,,,,,Red Cross Field Survey,,,MEST,,,,088240234,masama Road,school,,,muslim,,Kambia,,,82,,,,,,,,1200,,,,yes,
4546958175,-12.9241975,9.1167456,hammadya,,,,,,,Red Cross Field Survey,,,MOEST,,,,,old barracks,school,,,muslim,,Kambia,,,,,,,,,,,310,,,,no,
4546958176,-12.9363106,9.1260154,KDC rogbara,,,,,,,Red Cross Field Survey,,,MOEST,,,,,Guinea highway,school,,,christian,,Rogbray,,,,,,,,,,,470,,,,no,
4546958177,-12.9175353,9.1220121,K D C Primary School,,,,,,,Red Cross Field Survey,,,Mr Kamara,,,,No phone,Townfildrd,school,,,,,Kambia,,,F KDCPrimary School,,,,,,,,580,,,,yes,
4546958178,-12.9203303,9.1058733,Services Primary School,,,,,,,Red Cross Field Survey,,,Abass kamara,,,,088567438,pebu,school,,,christian,,Kambia,,,,,,,,,,,360,,,,yes,
4546958179,-12.9188692,9.1229684,Bongo building,,,,,,,Red Cross Field Survey,,,Cansalor Amanata,,Both Muslim and Christian,,076704188,komrabai dura Road,school,,,multifaith,,Kambia,,,9,,,,,,,,26,,,,yes,
4546958180,-12.9219584,9.1037312,Nariama charm primary school,,,,,,,Red Cross Field Survey,,,Ibrahim marrah,,,,099049616,CSE,school,,,muslim,,Kambia,,,,,,,,,,,300,,,,yes,
4546958181,-12.9244753,9.1165987,hammadya primary school,,,,,,,Red Cross Field Survey,,,MOEST,,,,,old barracks,school,,,muslim,,Kambia,,,,,,,,,,,310,,,,no,
4546958182,-12.9978758,8.9771960,RC school,,,,,,,Red Cross Field Survey,,,Mr Kamara,,,,077649014,RC primary school,school,,,christian,,Rosinoh,,,,,,,,,,,200,,,,yes,
4546985549,-10.5655178,8.2784784,SLMB Mission,,,,,,,Red Cross Field Survey,,,SLMB Mission,,,,088702346,Buedu Road,school,,,muslim,,Kailahun,,,00,,,,,,,,565,,,,,
4606978291,-13.2713248,8.4776337,Narnia daycare,,,Mo-Fr 07:00-17:00,,,,,,,,Narnia daycare,,,+23276350548,Smart Farm Road,school,,,,,,,,5c smartfarm,,,,,,,,,,,,,
4698039355,-13.2188028,8.4678595,Fourah Bay college Secondary School,,,,,,,,,,,,,,,,school,,,,,,,,,,,,,,,,,,,,,
4735328136,-12.2919985,8.2977758,Mokellay,,,,,,,,,,,Mokellay,,,,,school,,,,,,,,,,,,,,,,,,,,,
4735328138,-12.2308233,8.0034969,Taninihun Kapuima School ADPSL site,,,,,,,,,,,Taninihun Kapuima School ADPSL site,,,,,school,,,,,,,,,,,,,,,,,,,,,
4735328139,-12.1973895,7.9839886,Foya Tawei Mosanda School ADPSL site,,,,,,,,,,,Foya Tawei Mosanda School ADPSL site,,,,,school,,,,,,,,,,,,,,,,,,,,,
4735340121,-12.2581119,8.2836420,Waterloo school Al-Kudus,,,,,,,,,,,Waterloo school Al-Kudus,,,,,school,,,,,,,,,,,,,,,,,,,,,
4735340122,-12.1868034,7.9602046,Kabima School ADP-SL Site,,,,,,,,,,,Kabima School ADP-SL Site,,,,,school,,,,,,,,,,,,,,,,,,,,,
4735340123,-12.2811744,8.2590130,Njagbahun School ADP-SL SITE 2017,,,,,,,,,,,Njagbahun School ADP-SL SITE 2017,,,,,school,,,,,,,,,,,,,,,,,,,,,
4760219923,-11.7897521,9.3827080,Sangbangba School ADP-SL site Kabala,,,,,,,,,,,Sangbangba School ADP-SL site Kabala,,,,,school,,,,,,,,,,,,,,,,,,,,,
4760219924,-11.4973779,9.3105421,Kromator Community School ADP-SL site 2017,,,,,,,,,,,Kromator Community School ADP-SL site 2017,,,,,school,,,,,,,,,,,,,,,,,,,,,
4760232222,-11.5651618,9.3800642,DEC School Kondibaia 2017 project,,,,,,,,,,,DEC School Kondibaia 2017 project,,,,,school,,,,,,,,,,,,,,,,,,,,,
4760232522,-11.5415997,9.3195778,Badala PHU 2017,,,,,,,,,,,Badala PHU 2017,,,,,school,,,,,,,,,,,,,,,,,,,,,
4760232523,-11.4550786,9.2523300,RC School Foria Kabala 2017,,,,,,,,,,,RC School Foria Kabala 2017,,,,,school,,,,,,,,,,,,,,,,,,,,,
4760232524,-11.4470993,9.1729931,MCA Kamokalia Primary School ADPSL site 2017,,,,,,,,,,,MCA Kamokalia Primary School ADPSL site 2017,,,,,school,,,,,,,,,,,,,,,,,,,,,
4760232722,-11.5621116,9.4510118,Bundu Koroma school DEC kabala 2017,,,,,,,,,,,Bundu Koroma school DEC kabala 2017,,,,,school,,,,,,,,,,,,,,,,,,,,,
4760232723,-11.4592191,9.2103054,Nyawulia School 2017 project,,,,,,,,,,,Nyawulia School 2017 project,,,,,school,,,,,,,,,,,,,,,,,,,,,
4761686721,-12.2592080,8.2283191,UMC school Gbappi Songo Moyamba 2017,,,,,,,,,,,UMC school Gbappi Songo Moyamba 2017,,,,,school,,,,,,,,,,,,,,,,,,,,,
4761686821,-12.2457527,8.2986912,Mokellay Junction,,,,,,,,,,,Mokellay Junction,,,,,school,,,,,,,,,,,,,,,,,,,,,
4761968124,-12.2920126,8.2977668,Mokellay School Moyamba 2017,,,,,,,,,,,Mokellay School Moyamba 2017,,,,,school,,,,,,,,,,,,,,,,,,,,,
4818872324,-13.2216650,8.4776276,Chemistry Building,,,Mo-Fr,,,,,,,,,,,,Fourah Bay College Campus,school,,,,,,,,,,,,,,,,,,,,,
4818872330,-13.2216768,8.4778704,Kennedy Building,,,Mo-Fr,,,,,,,,,,,,fourah bay college campus,school,,,,,,,,,,,,,,,,,,,,,
4837006532,-12.2439383,9.3993732,St. Paul Junior Secondary School,,,Mo-Fr 09:00-18:00,,,,,,,Diocese of Makeni,,,,,OAR Mission Kamalo Town,school,,,,,,,,,,,,,,,,,,,,,
4837006534,-12.2392040,9.4992633,St. Peter's Nursery School,,,Mo-Fr 08:30-12:00,,,,,,,Diocese of Makeni,,,,,St. Peter's Chapel Compound  Kamakwie Town,school,,,,,,,,,,,,,,,,,,,,,
4837006536,-12.2421393,9.3999650,St. Paul Nursery School,,,Mo-Fr 9:00-12:30,,,,,,,,,,,,Kamalo Town,school,,,,,,,,,,,,,,,,,,,,,
4837006537,-12.2429509,9.4008660,St. Paul Primary School,,,Mo-Fr 8:00-2:00,,,,,,,,,,,,Kamalo Town,school,,,,,,,,,,,,,,,,,,,,,
4837021722,-12.2423220,9.3991082,school bukol,,,Mo-Sa,,,,,,,OAR,,,,,OAR Mission Compound  Kamalo Town,school,,,,,,,,,,,,,,,,,,,,,
4851635821,-13.2799024,8.4524930,Summit Preparatory and Secondary School,,,24/7,,,,,,,Mr. Emmanuel T. Blake,Summit Preparatory and Secondary School,,,+23230302466,Juba Barracks,school,michaelblakeaugustine@gmail.com,,,,,,,,,,,,,,,,,,,,
4861866322,-12.0415564,8.8759790,Makeni Comprehensive Academy,,,,,144,,,,825423,,,,,,,school,,,,,,,Thoronka Street,,,,,Education,,,,,,982438,,,School
4861866323,-12.0382164,8.8835678,St Joseph School(Primary & Secondary),,,,,143,,,,825784,,,,,,,school,,,,,,,Teko Raod,,,,,Education,,,,,,983281,,,School
4861866324,-12.0476364,8.8676259,Benevolent Islamic Secondary school,,,,,142,,,,824761,,,,,,,school,,,,,,,Ropolon,,,,,Education,,,,,,981508,,,School
4861866325,-12.0422566,8.8985144,Birch Memorial School,,,,,141,,,,825326,,,,,,,school,,,,,,,sylvernus Street,,,,,Education,,,,,,984932,,,School
4861866326,-12.0557278,8.8871936,St .Francis Secondary School,,,,,140,,,,823853,,,,,,,school,,,,,,,off Azzolini Highway,,,,,Education,,,,,,983667,,,School
4861866329,-12.0369380,8.8832686,Our Lady Of Fatima Primary school,,,,,137,,,,825925,,,,,,,school,,,,,,,Teko Road,,,,,Education,,,,,,983249,,,School
4861866398,-12.0447353,8.8873504,Institute of Business and information Technology,,,,,68,,,,825063,,,,,,,school,,,,,,,5 Magburaka Road,,,,,Education,,,,,,983694,,,Institution
4981291522,-12.0504575,7.7829717,Vocational secondary school,,,,,,,,,,,Vocational secondary school,,,,,school,,,,,,,,,,,,,,,,,,,,,
5074059021,-12.5130035,7.5267300,Bonthe Secondary School,,,,,,,,,,,Bonthe secondary school,,,,,school,,,,,,,,,,,,,,,,,,,,,
5129898023,-12.5484200,8.6841553,A.D Wurie Secondary School,,,,,,,,,,,,,,,,school,,,,,,,,,,,,,,,,,,,,,
5191234222,-12.2060900,9.2976601,St. Joseph Primary School,,,Mo-Fr 09:00-14:30; Sa-Su,,,,,,,,,,,,St. Joseph Street,school,,,,,,,,,,,,,,,,,,,,,
5194307837,-12.0620993,8.1135824,experimental school 1,,,,,,,,,,,,,,,,school,,,,,,,,,,,,,,,,,,,,,
5194342677,-12.0682894,8.1150603,NJALA UNIVERSITY LIBRARY,,,,,,,,,,NJALA UNIVERSITY,,,,,,school,,,,,,,,,,,,,,,,,Its an electronic library  with standard books.,,,,
5194427823,-12.0531521,8.1093126,Mosongo school,,,,,,,,,,,,,,,,school,,,,,,,,,,,,,,,,,,,,,
5271854812,-13.2710364,8.4805735,WAM Collegiate School,,,,,,,,,,,,,,,,school,,,,,,,,,,,,,,,,,,,,,
5342137925,-13.2591897,8.4841631,Vine Memorial Secondary,,,,,,,,,,,,,,,Main Motor Road,school,,,,,,,,,,,,,,,,,,,,,
5440880622,-13.1542013,8.4312558,Chapel preparatory school,,,Mo-Fr 08:00-16:00,,,,,,,Juma,,,,,OSMAN LANE,school,,,,,,,,10,,,,,,,,,,,,,
5462671221,-13.1309323,8.4099906,Jui primary school 15126,,,,,,,,,,,,,,,,school,,,,,,,,,,,,,,,,,,,,,
5462671321,-13.1151124,8.4002198,15095,,,,,,,,,,,,,,,,school,,,,,,,,,,,,,,,,,,,,,
5462671322,-13.0959644,8.3907345,15110,,,,,,,,,,,,,,,,school,,,,,,,,,,,,,,,,,,,,,
5855289008,-11.7620040,9.0636786,Saint George's Roman Catholic Primary School,,,,,,,,,,,,,,,,school,,,,,,,,,,,,,,,,,,,,,
5855289009,-11.7759833,9.1153935,Saint Henry's Roman Catholic Primary School,,,,,,,,,,,,,,,,school,,,,,,,,,,,,,,,,,,,,,
5855289011,-11.7522753,9.0465804,Saint Matthew's Secondary School,,catholic,,,,,,,,,,,,,,school,,,christian,,,,,,,,,,,,,,,,,,
5855289012,-11.7520446,9.0456692,Saint Joseph's Primary School,,catholic,,,,,,,,,,,,,,school,,,christian,,,,,,,,,,,,,,,,,,
6113000711,-12.0523948,8.8799111,Fawe Primary School,,,,,,,,,,,,,,,,school,,,,,,,,,,,,,,,,,,,,,
6141041488,-12.0694617,8.1145083,School of Natural Resources Management,,,,,,,,,,,,,,,,school,,,,,,,,,,,,,,,,,,,,,
6193676485,-12.0713518,8.1070842,UMC Primary School  Mokondeh,,,,,,,,,,,,,,,,school,,,,,,,,,,,,,,,,,,,,,
